{
  "version": 0.6,
  "generator": "Overpass API 0.7.62.4 2390de5a",
  "osm3s": {
    "timestamp_osm_base": "2024-12-14T15:17:45Z",
    "timestamp_areas_base": "2024-12-14T13:44:36Z",
    "copyright": "The data included in this document is from www.openstreetmap.org. The data is made available under ODbL."
  },
  "elements": [
    {
      "type": "way",
      "id": 1178732924,
      "nodes": [
        10946855153,
        10951204175,
        10951204176,
        10951204177,
        10951204178,
        10951204179,
        10951204180,
        10951204181,
        10951204182,
        10951204183,
        10951204184,
        10951204185,
        10951204186,
        10951204187,
        10951204188,
        10983577316,
        10951204189,
        10951204190,
        10951204191,
        10951204192,
        11030756978,
        11030756977,
        10951204193,
        10951204194,
        10951204195,
        10951204196,
        10951204197,
        10951204198
      ],
      "tags": {
        "admin_level": "8",
        "boundary": "administrative"
      }
    },
    {
      "type": "way",
      "id": 1193488518,
      "nodes": [
        10951224368,
        11078198793,
        11078198800,
        11078198801,
        11078198794,
        11078198796,
        11078198804,
        11078198797,
        11078198798,
        11078198799,
        11078198795,
        10951224472
      ],
      "tags": {
        "boundary": "administrative"
      }
    },
    {
      "type": "relation",
      "id": 3486289,
      "members": [
        {
          "type": "relation",
          "ref": 16507564,
          "role": "subarea"
        },
        {
          "type": "relation",
          "ref": 15970330,
          "role": "subarea"
        },
        {
          "type": "relation",
          "ref": 15938002,
          "role": "subarea"
        },
        {
          "type": "relation",
          "ref": 15937221,
          "role": "subarea"
        },
        {
          "type": "relation",
          "ref": 15937201,
          "role": "subarea"
        },
        {
          "type": "relation",
          "ref": 15937744,
          "role": "subarea"
        },
        {
          "type": "relation",
          "ref": 15937680,
          "role": "subarea"
        },
        {
          "type": "relation",
          "ref": 15937892,
          "role": "subarea"
        },
        {
          "type": "node",
          "ref": 1868373176,
          "role": "admin_centre"
        },
        {
          "type": "way",
          "ref": 1178407368,
          "role": "outer"
        },
        {
          "type": "way",
          "ref": 1222508191,
          "role": "outer"
        },
        {
          "type": "way",
          "ref": 1179959628,
          "role": "outer"
        },
        {
          "type": "way",
          "ref": 1190663849,
          "role": "outer"
        },
        {
          "type": "way",
          "ref": 1190663847,
          "role": "outer"
        },
        {
          "type": "way",
          "ref": 1179675237,
          "role": "outer"
        },
        {
          "type": "way",
          "ref": 1190663845,
          "role": "outer"
        },
        {
          "type": "way",
          "ref": 1179959629,
          "role": "outer"
        },
        {
          "type": "way",
          "ref": 259741923,
          "role": "outer"
        },
        {
          "type": "way",
          "ref": 1190663830,
          "role": "outer"
        },
        {
          "type": "way",
          "ref": 1190663831,
          "role": "outer"
        },
        {
          "type": "way",
          "ref": 1190663833,
          "role": "outer"
        },
        {
          "type": "way",
          "ref": 1190663832,
          "role": "outer"
        },
        {
          "type": "way",
          "ref": 1179679742,
          "role": "outer"
        },
        {
          "type": "way",
          "ref": 1190663834,
          "role": "outer"
        },
        {
          "type": "way",
          "ref": 1179676599,
          "role": "outer"
        },
        {
          "type": "way",
          "ref": 1179676600,
          "role": "outer"
        },
        {
          "type": "way",
          "ref": 1212730179,
          "role": "outer"
        },
        {
          "type": "way",
          "ref": 1178411091,
          "role": "outer"
        },
        {
          "type": "way",
          "ref": 1205137778,
          "role": "outer"
        },
        {
          "type": "way",
          "ref": 1202029442,
          "role": "outer"
        },
        {
          "type": "way",
          "ref": 1202029441,
          "role": "outer"
        },
        {
          "type": "way",
          "ref": 1179704375,
          "role": "outer"
        },
        {
          "type": "way",
          "ref": 1178407367,
          "role": "outer"
        },
        {
          "type": "way",
          "ref": 1179496394,
          "role": "outer"
        },
        {
          "type": "way",
          "ref": 259741910,
          "role": "outer"
        },
        {
          "type": "way",
          "ref": 1184992683,
          "role": "outer"
        },
        {
          "type": "way",
          "ref": 1202029456,
          "role": "outer"
        },
        {
          "type": "way",
          "ref": 1184992685,
          "role": "outer"
        },
        {
          "type": "way",
          "ref": 1202029461,
          "role": "outer"
        },
        {
          "type": "way",
          "ref": 1184992686,
          "role": "outer"
        },
        {
          "type": "way",
          "ref": 1216760720,
          "role": "outer"
        },
        {
          "type": "way",
          "ref": 259741908,
          "role": "outer"
        },
        {
          "type": "way",
          "ref": 1185033232,
          "role": "outer"
        },
        {
          "type": "way",
          "ref": 1179496397,
          "role": "outer"
        },
        {
          "type": "way",
          "ref": 1193488516,
          "role": "outer"
        },
        {
          "type": "way",
          "ref": 1216760722,
          "role": "outer"
        },
        {
          "type": "way",
          "ref": 1178407366,
          "role": "outer"
        },
        {
          "type": "way",
          "ref": 1193488514,
          "role": "outer"
        },
        {
          "type": "way",
          "ref": 1193488515,
          "role": "outer"
        },
        {
          "type": "way",
          "ref": 1197494405,
          "role": "outer"
        },
        {
          "type": "way",
          "ref": 1178407365,
          "role": "outer"
        },
        {
          "type": "way",
          "ref": 1197494399,
          "role": "outer"
        },
        {
          "type": "way",
          "ref": 259741921,
          "role": "outer"
        },
        {
          "type": "way",
          "ref": 1197494401,
          "role": "outer"
        },
        {
          "type": "way",
          "ref": 1184669056,
          "role": "outer"
        },
        {
          "type": "way",
          "ref": 1197494403,
          "role": "outer"
        },
        {
          "type": "way",
          "ref": 1178783106,
          "role": "outer"
        },
        {
          "type": "way",
          "ref": 1198088579,
          "role": "outer"
        },
        {
          "type": "way",
          "ref": 1178783105,
          "role": "outer"
        },
        {
          "type": "way",
          "ref": 1211010833,
          "role": "outer"
        },
        {
          "type": "way",
          "ref": 1198088582,
          "role": "outer"
        },
        {
          "type": "way",
          "ref": 1184669983,
          "role": "outer"
        },
        {
          "type": "way",
          "ref": 1179698024,
          "role": "outer"
        },
        {
          "type": "way",
          "ref": 1198088580,
          "role": "outer"
        },
        {
          "type": "way",
          "ref": 1178407370,
          "role": "outer"
        },
        {
          "type": "way",
          "ref": 1189390497,
          "role": "outer"
        },
        {
          "type": "way",
          "ref": 259741919,
          "role": "outer"
        },
        {
          "type": "way",
          "ref": 1179691318,
          "role": "outer"
        },
        {
          "type": "way",
          "ref": 1180001822,
          "role": "outer"
        },
        {
          "type": "way",
          "ref": 1179688110,
          "role": "outer"
        },
        {
          "type": "way",
          "ref": 1178407369,
          "role": "outer"
        }
      ],
      "tags": {
        "ISO3166-2": "KE-17",
        "admin_level": "4",
        "boundary": "administrative",
        "name": "Kisumu",
        "name:ar": "منطقة كيزيمو",
        "name:ceb": "Kisumu",
        "name:de": "Kisumu County",
        "name:en": "Kisumu County",
        "name:es": "Condado de Kisumu",
        "name:fa": "شهرستان کیسومو",
        "name:fr": "Comté de Kisumu",
        "name:id": "County Kisumu",
        "name:it": "Contea di Kisumu",
        "name:ja": "キスム",
        "name:ko": "키수무현",
        "name:nan": "Kisumu Kūn",
        "name:nl": "Kisumu County",
        "name:no": "Kisumu fylke",
        "name:pl": "Kisumu",
        "name:pt": "Quisumu",
        "name:sv": "Kisumu",
        "name:sw": "Kaunti ya Kisumu",
        "name:ur": "کسیمو کاؤنٹی",
        "name:vi": "Kisumu",
        "name:zh": "基蘇木郡",
        "name:zu": "Kisumu County",
        "type": "boundary",
        "wikidata": "Q1743809",
        "wikipedia": "en:Kisumu County"
      }
    },
    {
      "type": "relation",
      "id": 15948946,
      "members": [
        {
          "type": "relation",
          "ref": 16144872,
          "role": "subarea"
        },
        {
          "type": "relation",
          "ref": 16144871,
          "role": "subarea"
        },
        {
          "type": "way",
          "ref": 1178730736,
          "role": "outer"
        },
        {
          "type": "way",
          "ref": 1193488510,
          "role": "outer"
        },
        {
          "type": "way",
          "ref": 1178724777,
          "role": "outer"
        },
        {
          "type": "way",
          "ref": 1193488511,
          "role": "outer"
        },
        {
          "type": "way",
          "ref": 1178724770,
          "role": "outer"
        },
        {
          "type": "way",
          "ref": 1178724775,
          "role": "outer"
        },
        {
          "type": "way",
          "ref": 1178730738,
          "role": "outer"
        },
        {
          "type": "way",
          "ref": 1178724774,
          "role": "outer"
        }
      ],
      "tags": {
        "admin_level": "8",
        "boundary": "administrative",
        "is_in:county": "Kisumu",
        "is_in:subcounty": "Kisumu Central",
        "name": "Market Milimani ward",
        "type": "boundary"
      }
    },
    {
      "type": "relation",
      "id": 15948965,
      "members": [
        {
          "type": "way",
          "ref": 1178749291,
          "role": "outer"
        },
        {
          "type": "way",
          "ref": 1178727477,
          "role": "outer"
        },
        {
          "type": "way",
          "ref": 1193488510,
          "role": "outer"
        },
        {
          "type": "way",
          "ref": 1178724777,
          "role": "outer"
        },
        {
          "type": "way",
          "ref": 1178724771,
          "role": "outer"
        },
        {
          "type": "way",
          "ref": 1197494392,
          "role": "outer"
        },
        {
          "type": "way",
          "ref": 1178724773,
          "role": "outer"
        }
      ],
      "tags": {
        "admin_level": "8",
        "boundary": "administrative",
        "is_in:county": "Kisumu",
        "is_in:subcounty": "Kisumu Central",
        "name": "Shauri Moyo Kaloleni Ward",
        "political_division": "ward",
        "source_ref": "IEBC",
        "type": "boundary"
      }
    },
    {
      "type": "relation",
      "id": 15948975,
      "members": [
        {
          "type": "relation",
          "ref": 16193534,
          "role": "subarea"
        },
        {
          "type": "relation",
          "ref": 16193535,
          "role": "subarea"
        },
        {
          "type": "relation",
          "ref": 16193533,
          "role": "subarea"
        },
        {
          "type": "way",
          "ref": 1178379581,
          "role": "outer"
        },
        {
          "type": "way",
          "ref": 1178734358,
          "role": "outer"
        },
        {
          "type": "way",
          "ref": 1197494391,
          "role": "outer"
        },
        {
          "type": "way",
          "ref": 1178724776,
          "role": "outer"
        },
        {
          "type": "way",
          "ref": 1178724772,
          "role": "outer"
        },
        {
          "type": "way",
          "ref": 1197494392,
          "role": "outer"
        },
        {
          "type": "way",
          "ref": 1178724771,
          "role": "outer"
        },
        {
          "type": "way",
          "ref": 1193488511,
          "role": "outer"
        },
        {
          "type": "way",
          "ref": 1178724770,
          "role": "outer"
        },
        {
          "type": "way",
          "ref": 1178724775,
          "role": "outer"
        },
        {
          "type": "way",
          "ref": 1178379600,
          "role": "outer"
        },
        {
          "type": "way",
          "ref": 1178379569,
          "role": "outer"
        },
        {
          "type": "way",
          "ref": 1193913672,
          "role": "outer"
        },
        {
          "type": "way",
          "ref": 1193913670,
          "role": "outer"
        },
        {
          "type": "way",
          "ref": 1193913669,
          "role": "outer"
        },
        {
          "type": "way",
          "ref": 1193913671,
          "role": "outer"
        },
        {
          "type": "way",
          "ref": 1193913673,
          "role": "outer"
        },
        {
          "type": "way",
          "ref": 1178764420,
          "role": "outer"
        }
      ],
      "tags": {
        "admin_level": "8",
        "boundary": "administrative",
        "is_in:county": "Kisumu",
        "is_in:subcounty": "Kisumu Central",
        "name": "Railways ward",
        "political_division": "ward",
        "type": "boundary"
      }
    },
    {
      "type": "relation",
      "id": 15948982,
      "members": [
        {
          "type": "way",
          "ref": 1178379570,
          "role": "outer"
        },
        {
          "type": "way",
          "ref": 1178750298,
          "role": "outer"
        },
        {
          "type": "way",
          "ref": 1178732924,
          "role": "outer"
        },
        {
          "type": "way",
          "ref": 1178724776,
          "role": "outer"
        },
        {
          "type": "way",
          "ref": 1197494391,
          "role": "outer"
        },
        {
          "type": "way",
          "ref": 1178750301,
          "role": "outer"
        }
      ],
      "tags": {
        "admin_level": "8",
        "boundary": "administrative",
        "is_in:county": "Kisumu",
        "is_in:subcounty": "Kisumu Central",
        "name": "Migosi ward",
        "political_division": "ward",
        "type": "boundary"
      }
    },
    {
      "type": "relation",
      "id": 15949028,
      "members": [
        {
          "type": "way",
          "ref": 1178732923,
          "role": "outer"
        },
        {
          "type": "way",
          "ref": 1178724773,
          "role": "outer"
        },
        {
          "type": "way",
          "ref": 1178724772,
          "role": "outer"
        },
        {
          "type": "way",
          "ref": 1178732924,
          "role": "outer"
        }
      ],
      "tags": {
        "admin_level": "8",
        "boundary": "administrative",
        "is_in:county": "Kisumu",
        "is_in:subcounty": "Kisumu Central",
        "name": "Kondele ward",
        "political_division": "ward",
        "type": "boundary"
      }
    },
    {
      "type": "relation",
      "id": 15986024,
      "members": [
        {
          "type": "way",
          "ref": 1178727475,
          "role": "outer"
        },
        {
          "type": "way",
          "ref": 1178749289,
          "role": "outer"
        },
        {
          "type": "way",
          "ref": 1178724774,
          "role": "outer"
        },
        {
          "type": "way",
          "ref": 1178730737,
          "role": "outer"
        }
      ],
      "tags": {
        "admin_level": "8",
        "admin_type:KE": "ward",
        "boundary": "administrative",
        "is_in:subcounty": "Kisumu Central",
        "name": "Nyalenda B ward",
        "type": "boundary"
      }
    },
    {
      "type": "relation",
      "id": 16144871,
      "members": [
        {
          "type": "way",
          "ref": 1178730736,
          "role": "outer"
        },
        {
          "type": "way",
          "ref": 1178724770,
          "role": "outer"
        },
        {
          "type": "way",
          "ref": 1193488518,
          "role": "outer"
        },
        {
          "type": "way",
          "ref": 1193488510,
          "role": "outer"
        },
        {
          "type": "way",
          "ref": 1178724774,
          "role": "outer"
        },
        {
          "type": "way",
          "ref": 1178730738,
          "role": "outer"
        },
        {
          "type": "way",
          "ref": 1178724775,
          "role": "outer"
        }
      ],
      "tags": {
        "admin_level": "10",
        "admin_type:KE": "village/sublocation",
        "boundary": "administrative",
        "name": "Southern sublocation",
        "type": "boundary"
      }
    },
    {
      "type": "relation",
      "id": 16144872,
      "members": [
        {
          "type": "way",
          "ref": 1193488518,
          "role": "outer"
        },
        {
          "type": "way",
          "ref": 1178724777,
          "role": "outer"
        },
        {
          "type": "way",
          "ref": 1193488511,
          "role": "outer"
        }
      ],
      "tags": {
        "admin_level": "10",
        "admin_type:KE": "village/sublocation",
        "boundary": "administrative",
        "name": "Northern sublocation",
        "type": "boundary"
      }
    },
    {
      "type": "relation",
      "id": 16193533,
      "members": [
        {
          "type": "way",
          "ref": 1197494422,
          "role": "outer"
        },
        {
          "type": "way",
          "ref": 1178724776,
          "role": "outer"
        },
        {
          "type": "way",
          "ref": 1178724772,
          "role": "outer"
        },
        {
          "type": "way",
          "ref": 1197494392,
          "role": "outer"
        },
        {
          "type": "way",
          "ref": 1197494421,
          "role": "outer"
        }
      ],
      "tags": {
        "admin_level": "10",
        "admin_type:KE": "village/sublocation",
        "boundary": "administrative",
        "name": "Nyawita sublocation",
        "type": "boundary"
      }
    },
    {
      "type": "relation",
      "id": 16193534,
      "members": [
        {
          "type": "way",
          "ref": 1178379581,
          "role": "outer"
        },
        {
          "type": "way",
          "ref": 1178764420,
          "role": "outer"
        },
        {
          "type": "way",
          "ref": 1178734358,
          "role": "outer"
        },
        {
          "type": "way",
          "ref": 1197494391,
          "role": "outer"
        },
        {
          "type": "way",
          "ref": 1197494422,
          "role": "outer"
        },
        {
          "type": "way",
          "ref": 1197494393,
          "role": "outer"
        },
        {
          "type": "way",
          "ref": 1193913671,
          "role": "outer"
        },
        {
          "type": "way",
          "ref": 1193913673,
          "role": "outer"
        }
      ],
      "tags": {
        "admin_level": "10",
        "admin_type:KE": "village/sublocation",
        "boundary": "administrative",
        "name": "Kanyakwar sublocation",
        "type": "boundary"
      }
    },
    {
      "type": "relation",
      "id": 16193535,
      "members": [
        {
          "type": "way",
          "ref": 1193913669,
          "role": "outer"
        },
        {
          "type": "way",
          "ref": 1193913670,
          "role": "outer"
        },
        {
          "type": "way",
          "ref": 1178724770,
          "role": "outer"
        },
        {
          "type": "way",
          "ref": 1193488511,
          "role": "outer"
        },
        {
          "type": "way",
          "ref": 1178724771,
          "role": "outer"
        },
        {
          "type": "way",
          "ref": 1178724775,
          "role": "outer"
        },
        {
          "type": "way",
          "ref": 1178379600,
          "role": "outer"
        },
        {
          "type": "way",
          "ref": 1178379569,
          "role": "outer"
        },
        {
          "type": "way",
          "ref": 1193913672,
          "role": "outer"
        },
        {
          "type": "way",
          "ref": 1197494393,
          "role": "outer"
        },
        {
          "type": "way",
          "ref": 1197494421,
          "role": "outer"
        }
      ],
      "tags": {
        "admin_level": "10",
        "admin_type:KE": "village/sublocation",
        "boundary": "administrative",
        "name": "Bandari sublocation",
        "type": "boundary"
      }
    },
    {
      "type": "relation",
      "id": 16507564,
      "members": [
        {
          "type": "way",
          "ref": 1197494410,
          "role": "outer"
        },
        {
          "type": "way",
          "ref": 1193913675,
          "role": "outer"
        },
        {
          "type": "way",
          "ref": 1178763337,
          "role": "outer"
        },
        {
          "type": "way",
          "ref": 1198088584,
          "role": "outer"
        },
        {
          "type": "way",
          "ref": 1178763336,
          "role": "outer"
        },
        {
          "type": "way",
          "ref": 1198088586,
          "role": "outer"
        },
        {
          "type": "way",
          "ref": 1197494399,
          "role": "outer"
        },
        {
          "type": "way",
          "ref": 259741921,
          "role": "outer"
        },
        {
          "type": "way",
          "ref": 1197494401,
          "role": "outer"
        },
        {
          "type": "way",
          "ref": 1184669056,
          "role": "outer"
        },
        {
          "type": "way",
          "ref": 1197494403,
          "role": "outer"
        },
        {
          "type": "way",
          "ref": 1178407365,
          "role": "outer"
        },
        {
          "type": "way",
          "ref": 1197494405,
          "role": "outer"
        },
        {
          "type": "way",
          "ref": 1193488515,
          "role": "outer"
        },
        {
          "type": "way",
          "ref": 1193488514,
          "role": "outer"
        },
        {
          "type": "way",
          "ref": 1178407366,
          "role": "outer"
        },
        {
          "type": "way",
          "ref": 1216760722,
          "role": "outer"
        },
        {
          "type": "way",
          "ref": 1193488516,
          "role": "outer"
        },
        {
          "type": "way",
          "ref": 1178750297,
          "role": "outer"
        },
        {
          "type": "way",
          "ref": 1193488513,
          "role": "outer"
        },
        {
          "type": "way",
          "ref": 1178751929,
          "role": "outer"
        },
        {
          "type": "way",
          "ref": 1179586203,
          "role": "outer"
        },
        {
          "type": "way",
          "ref": 1178379578,
          "role": "outer"
        },
        {
          "type": "way",
          "ref": 1212730202,
          "role": "outer"
        },
        {
          "type": "way",
          "ref": 1178379574,
          "role": "outer"
        },
        {
          "type": "way",
          "ref": 1178379571,
          "role": "outer"
        },
        {
          "type": "way",
          "ref": 1197494407,
          "role": "outer"
        },
        {
          "type": "way",
          "ref": 1178751930,
          "role": "outer"
        },
        {
          "type": "way",
          "ref": 1178730737,
          "role": "outer"
        },
        {
          "type": "way",
          "ref": 1178730738,
          "role": "outer"
        },
        {
          "type": "way",
          "ref": 1178379600,
          "role": "outer"
        },
        {
          "type": "way",
          "ref": 1178764421,
          "role": "outer"
        },
        {
          "type": "way",
          "ref": 1197494394,
          "role": "outer"
        },
        {
          "type": "way",
          "ref": 1197494396,
          "role": "outer"
        },
        {
          "type": "way",
          "ref": 1193913674,
          "role": "outer"
        },
        {
          "type": "way",
          "ref": 1193913676,
          "role": "outer"
        },
        {
          "type": "way",
          "ref": 1178379594,
          "role": "outer"
        },
        {
          "type": "way",
          "ref": 1178765318,
          "role": "outer"
        },
        {
          "type": "way",
          "ref": 1193914659,
          "role": "outer"
        },
        {
          "type": "way",
          "ref": 1193913677,
          "role": "outer"
        },
        {
          "type": "way",
          "ref": 1178379595,
          "role": "outer"
        },
        {
          "type": "node",
          "ref": 11139934547,
          "role": "admin_centre"
        }
      ],
      "tags": {
        "admin_level": "7",
        "admin_type:KE": "City",
        "boundary": "administrative",
        "name": "City of Kisumu",
        "name:am": "የኪሱሙ ከተማ",
        "name:ar": "مدينة كيسومو",
        "name:de": "Byen Kisumu",
        "name:es": "Urbo de Kisumu",
        "name:fr": "Ville de Kisumu",
        "name:grc": "Πόλη Κισούμου",
        "name:gu": "કિસુમુ શહેર",
        "name:hi": "किसुमू शहर",
        "name:ja": "キスム市",
        "name:ko": "키수무시",
        "name:ru": "Город Кисуму",
        "population": "1155574",
        "population:date": "2019",
        "type": "boundary",
        "website": "https://city.kisumu.go.ke/"
      }
    },
    {
      "type": "node",
      "id": 2544724599,
      "lat": -0.4032162,
      "lon": 34.9149223
    },
    {
      "type": "node",
      "id": 2544724608,
      "lat": -0.4041927,
      "lon": 34.9229179
    },
    {
      "type": "node",
      "id": 2544724611,
      "lat": -0.4043148,
      "lon": 34.9188895
    },
    {
      "type": "node",
      "id": 2544724602,
      "lat": -0.4035213,
      "lon": 34.926702
    },
    {
      "type": "node",
      "id": 2544724632,
      "lat": -0.4051082,
      "lon": 34.9296928
    },
    {
      "type": "node",
      "id": 2544724756,
      "lat": -0.4121273,
      "lon": 34.9309135
    },
    {
      "type": "node",
      "id": 2544724766,
      "lat": -0.4126156,
      "lon": 34.9381156
    },
    {
      "type": "node",
      "id": 2544724799,
      "lat": -0.4143246,
      "lon": 34.940496
    },
    {
      "type": "node",
      "id": 2544724864,
      "lat": -0.4163997,
      "lon": 34.9483085
    },
    {
      "type": "node",
      "id": 2544724854,
      "lat": -0.4162166,
      "lon": 34.9547172
    },
    {
      "type": "node",
      "id": 2544724871,
      "lat": -0.416827,
      "lon": 34.9517264
    },
    {
      "type": "node",
      "id": 2544724814,
      "lat": -0.4146297,
      "lon": 34.9451347
    },
    {
      "type": "node",
      "id": 11055369436,
      "lat": -0.4158582,
      "lon": 34.9473375
    },
    {
      "type": "node",
      "id": 2544724847,
      "lat": -0.4160946,
      "lon": 34.9623466
    },
    {
      "type": "node",
      "id": 2544724790,
      "lat": -0.4140804,
      "lon": 34.96491
    },
    {
      "type": "node",
      "id": 10956802313,
      "lat": -0.4136222,
      "lon": 34.9682483
    },
    {
      "type": "node",
      "id": 2544724744,
      "lat": -0.4117,
      "lon": 34.973516
    },
    {
      "type": "node",
      "id": 2544724775,
      "lat": -0.4132259,
      "lon": 34.9711356
    },
    {
      "type": "node",
      "id": 2544724732,
      "lat": -0.4112118,
      "lon": 34.976934
    },
    {
      "type": "node",
      "id": 2544724793,
      "lat": -0.4140804,
      "lon": 34.9807181
    },
    {
      "type": "node",
      "id": 2544724727,
      "lat": -0.4107235,
      "lon": 34.9888969
    },
    {
      "type": "node",
      "id": 2544724808,
      "lat": -0.4145077,
      "lon": 34.9852958
    },
    {
      "type": "node",
      "id": 2544724688,
      "lat": -0.4085262,
      "lon": 34.9932914
    },
    {
      "type": "node",
      "id": 2544724650,
      "lat": -0.4062069,
      "lon": 34.9987235
    },
    {
      "type": "node",
      "id": 2544724648,
      "lat": -0.4060848,
      "lon": 35.0029349
    },
    {
      "type": "node",
      "id": 2544723865,
      "lat": -0.301943,
      "lon": 34.483946
    },
    {
      "type": "node",
      "id": 2651953198,
      "lat": -0.293542,
      "lon": 34.4810061
    },
    {
      "type": "node",
      "id": 2544723467,
      "lat": -0.2529426,
      "lon": 34.4677177
    },
    {
      "type": "node",
      "id": 2544723303,
      "lat": -0.2363411,
      "lon": 34.4625297
    },
    {
      "type": "node",
      "id": 2544723681,
      "lat": -0.2733333,
      "lon": 34.530889
    },
    {
      "type": "node",
      "id": 2544723651,
      "lat": -0.2715023,
      "lon": 34.5557304
    },
    {
      "type": "node",
      "id": 2544724131,
      "lat": -0.3518246,
      "lon": 34.7971244
    },
    {
      "type": "node",
      "id": 2544724142,
      "lat": -0.3540829,
      "lon": 34.7988944
    },
    {
      "type": "node",
      "id": 2544724151,
      "lat": -0.3548153,
      "lon": 34.8045097
    },
    {
      "type": "node",
      "id": 2544724159,
      "lat": -0.3554256,
      "lon": 34.8015189
    },
    {
      "type": "node",
      "id": 2544724146,
      "lat": -0.354388,
      "lon": 34.8099418
    },
    {
      "type": "node",
      "id": 2544723898,
      "lat": -0.3086117,
      "lon": 34.7590995
    },
    {
      "type": "node",
      "id": 2544723855,
      "lat": -0.2995785,
      "lon": 34.7589164
    },
    {
      "type": "node",
      "id": 2544723875,
      "lat": -0.3036068,
      "lon": 34.758306
    },
    {
      "type": "node",
      "id": 11338448113,
      "lat": -0.2985162,
      "lon": 34.7582455
    },
    {
      "type": "node",
      "id": 2544724031,
      "lat": -0.3398006,
      "lon": 34.7861381
    },
    {
      "type": "node",
      "id": 2544724020,
      "lat": -0.3366268,
      "lon": 34.7849174
    },
    {
      "type": "node",
      "id": 11055369443,
      "lat": -0.3348463,
      "lon": 34.7862996
    },
    {
      "type": "node",
      "id": 2544724098,
      "lat": -0.3471248,
      "lon": 34.7923026
    },
    {
      "type": "node",
      "id": 2544724115,
      "lat": -0.3504207,
      "lon": 34.7941337
    },
    {
      "type": "node",
      "id": 2544724057,
      "lat": -0.3435238,
      "lon": 34.7893119
    },
    {
      "type": "node",
      "id": 2544724062,
      "lat": -0.3440121,
      "lon": 34.792913
    },
    {
      "type": "node",
      "id": 2544724008,
      "lat": -0.3319881,
      "lon": 34.7885184
    },
    {
      "type": "node",
      "id": 2544723988,
      "lat": -0.3269222,
      "lon": 34.7879081
    },
    {
      "type": "node",
      "id": 2544723918,
      "lat": -0.3123958,
      "lon": 34.7615409
    },
    {
      "type": "node",
      "id": 2544723923,
      "lat": -0.3131893,
      "lon": 34.7663016
    },
    {
      "type": "node",
      "id": 10946855023,
      "lat": -0.313083,
      "lon": 34.7656639
    },
    {
      "type": "node",
      "id": 2544723926,
      "lat": -0.3131893,
      "lon": 34.77033
    },
    {
      "type": "node",
      "id": 2544723948,
      "lat": -0.3183163,
      "lon": 34.7775321
    },
    {
      "type": "node",
      "id": 11055369445,
      "lat": -0.317855,
      "lon": 34.7768841
    },
    {
      "type": "node",
      "id": 2544723966,
      "lat": -0.3203914,
      "lon": 34.780889
    },
    {
      "type": "node",
      "id": 2544723974,
      "lat": -0.3235042,
      "lon": 34.7849174
    },
    {
      "type": "node",
      "id": 2544723521,
      "lat": -0.2594784,
      "lon": 34.7042899
    },
    {
      "type": "node",
      "id": 2544723815,
      "lat": -0.2926205,
      "lon": 34.7557426
    },
    {
      "type": "node",
      "id": 2544723842,
      "lat": -0.2960995,
      "lon": 34.7567191
    },
    {
      "type": "node",
      "id": 2544723773,
      "lat": -0.2840145,
      "lon": 34.7439017
    },
    {
      "type": "node",
      "id": 2544723727,
      "lat": -0.2780941,
      "lon": 34.7347465
    },
    {
      "type": "node",
      "id": 2544722858,
      "lat": -0.1780525,
      "lon": 34.4429374
    },
    {
      "type": "node",
      "id": 10946849556,
      "lat": -0.1750535,
      "lon": 34.4418787
    },
    {
      "type": "node",
      "id": 2544722590,
      "lat": -0.1625496,
      "lon": 34.4376884
    },
    {
      "type": "node",
      "id": 2544722702,
      "lat": -0.1665792,
      "lon": 34.438887
    },
    {
      "type": "node",
      "id": 4799186312,
      "lat": -0.1663503,
      "lon": 34.4388401
    },
    {
      "type": "node",
      "id": 5201734510,
      "lat": -0.1662938,
      "lon": 34.4388174
    },
    {
      "type": "node",
      "id": 6981811084,
      "lat": -0.1664711,
      "lon": 34.4388603
    },
    {
      "type": "node",
      "id": 7012449558,
      "lat": -0.1638809,
      "lon": 34.4380588
    },
    {
      "type": "node",
      "id": 4799185627,
      "lat": -0.1555948,
      "lon": 34.435271
    },
    {
      "type": "node",
      "id": 4799185708,
      "lat": -0.1565421,
      "lon": 34.4356002
    },
    {
      "type": "node",
      "id": 2544722276,
      "lat": -0.1465584,
      "lon": 34.4323173
    },
    {
      "type": "node",
      "id": 2544722349,
      "lat": -0.151136,
      "lon": 34.4337211
    },
    {
      "type": "node",
      "id": 2544722223,
      "lat": -0.1384407,
      "lon": 34.4291434
    },
    {
      "type": "node",
      "id": 2544722085,
      "lat": -0.1280647,
      "lon": 34.4287162
    },
    {
      "type": "node",
      "id": 2544722105,
      "lat": -0.1296516,
      "lon": 34.4288993
    },
    {
      "type": "node",
      "id": 5999952128,
      "lat": -0.1316026,
      "lon": 34.4289535
    },
    {
      "type": "node",
      "id": 2544722048,
      "lat": -0.1245247,
      "lon": 34.4274955
    },
    {
      "type": "node",
      "id": 2544721930,
      "lat": -0.1175667,
      "lon": 34.4251151
    },
    {
      "type": "node",
      "id": 2544721982,
      "lat": -0.1207405,
      "lon": 34.4257255
    },
    {
      "type": "node",
      "id": 6050912718,
      "lat": -0.096568,
      "lon": 34.4185704
    },
    {
      "type": "node",
      "id": 2544721577,
      "lat": -0.0913826,
      "lon": 34.4171195
    },
    {
      "type": "node",
      "id": 2544721860,
      "lat": -0.1092659,
      "lon": 34.4221244
    },
    {
      "type": "node",
      "id": 4938537481,
      "lat": -0.1123113,
      "lon": 34.423227
    },
    {
      "type": "node",
      "id": 10946848811,
      "lat": -0.1614068,
      "lon": 34.601868
    },
    {
      "type": "node",
      "id": 10946848812,
      "lat": -0.1620193,
      "lon": 34.602409
    },
    {
      "type": "node",
      "id": 10946848813,
      "lat": -0.1621631,
      "lon": 34.6029221
    },
    {
      "type": "node",
      "id": 10946848809,
      "lat": -0.1601738,
      "lon": 34.6026443
    },
    {
      "type": "node",
      "id": 10946848810,
      "lat": -0.1605493,
      "lon": 34.6021199
    },
    {
      "type": "node",
      "id": 10946845847,
      "lat": -0.1438249,
      "lon": 34.5806256
    },
    {
      "type": "node",
      "id": 10946845848,
      "lat": -0.1440079,
      "lon": 34.5808543
    },
    {
      "type": "node",
      "id": 10946845849,
      "lat": -0.1440633,
      "lon": 34.5808663
    },
    {
      "type": "node",
      "id": 10946845850,
      "lat": -0.1444762,
      "lon": 34.5813712
    },
    {
      "type": "node",
      "id": 10946845851,
      "lat": -0.144928,
      "lon": 34.5817731
    },
    {
      "type": "node",
      "id": 10946845852,
      "lat": -0.1448354,
      "lon": 34.582351
    },
    {
      "type": "node",
      "id": 10946845853,
      "lat": -0.1449917,
      "lon": 34.5830837
    },
    {
      "type": "node",
      "id": 10946849214,
      "lat": -0.1437972,
      "lon": 34.5805783
    },
    {
      "type": "node",
      "id": 10946849215,
      "lat": -0.1437983,
      "lon": 34.5805855
    },
    {
      "type": "node",
      "id": 10946849216,
      "lat": -0.1436986,
      "lon": 34.58058
    },
    {
      "type": "node",
      "id": 10946849217,
      "lat": -0.1429077,
      "lon": 34.580514
    },
    {
      "type": "node",
      "id": 10946849218,
      "lat": -0.141897,
      "lon": 34.5803383
    },
    {
      "type": "node",
      "id": 10946849219,
      "lat": -0.1417649,
      "lon": 34.5803141
    },
    {
      "type": "node",
      "id": 10946849220,
      "lat": -0.1411505,
      "lon": 34.5801426
    },
    {
      "type": "node",
      "id": 10946849221,
      "lat": -0.1410871,
      "lon": 34.5801249
    },
    {
      "type": "node",
      "id": 10946845854,
      "lat": -0.1449865,
      "lon": 34.5839025
    },
    {
      "type": "node",
      "id": 10946845855,
      "lat": -0.1449006,
      "lon": 34.5846366
    },
    {
      "type": "node",
      "id": 10946845856,
      "lat": -0.1447715,
      "lon": 34.5852548
    },
    {
      "type": "node",
      "id": 10946845857,
      "lat": -0.1445745,
      "lon": 34.5864315
    },
    {
      "type": "node",
      "id": 10946845858,
      "lat": -0.1446895,
      "lon": 34.587413
    },
    {
      "type": "node",
      "id": 10946845859,
      "lat": -0.1447073,
      "lon": 34.5884321
    },
    {
      "type": "node",
      "id": 10946845860,
      "lat": -0.1443488,
      "lon": 34.5898873
    },
    {
      "type": "node",
      "id": 10946845893,
      "lat": -0.1489699,
      "lon": 34.6028202
    },
    {
      "type": "node",
      "id": 10946845894,
      "lat": -0.1496173,
      "lon": 34.6025074
    },
    {
      "type": "node",
      "id": 10946845895,
      "lat": -0.1501282,
      "lon": 34.6024083
    },
    {
      "type": "node",
      "id": 10946845896,
      "lat": -0.1505999,
      "lon": 34.6020163
    },
    {
      "type": "node",
      "id": 10946845897,
      "lat": -0.1513731,
      "lon": 34.6023687
    },
    {
      "type": "node",
      "id": 10946845861,
      "lat": -0.1438482,
      "lon": 34.5903203
    },
    {
      "type": "node",
      "id": 10946845862,
      "lat": -0.1433278,
      "lon": 34.5909475
    },
    {
      "type": "node",
      "id": 10946845863,
      "lat": -0.1427931,
      "lon": 34.591454
    },
    {
      "type": "node",
      "id": 10946845864,
      "lat": -0.1424573,
      "lon": 34.591968
    },
    {
      "type": "node",
      "id": 10946845865,
      "lat": -0.142185,
      "lon": 34.5927255
    },
    {
      "type": "node",
      "id": 10946845866,
      "lat": -0.1420379,
      "lon": 34.5934512
    },
    {
      "type": "node",
      "id": 10946845867,
      "lat": -0.1418327,
      "lon": 34.5940193
    },
    {
      "type": "node",
      "id": 10946845868,
      "lat": -0.1414856,
      "lon": 34.5944604
    },
    {
      "type": "node",
      "id": 10946845869,
      "lat": -0.1413877,
      "lon": 34.5953937
    },
    {
      "type": "node",
      "id": 10946845870,
      "lat": -0.1413077,
      "lon": 34.5959452
    },
    {
      "type": "node",
      "id": 10946845871,
      "lat": -0.1411524,
      "lon": 34.5967645
    },
    {
      "type": "node",
      "id": 10946845872,
      "lat": -0.1409838,
      "lon": 34.5977184
    },
    {
      "type": "node",
      "id": 10946845873,
      "lat": -0.1411998,
      "lon": 34.5986085
    },
    {
      "type": "node",
      "id": 10946845874,
      "lat": -0.1413769,
      "lon": 34.5991892
    },
    {
      "type": "node",
      "id": 10946845875,
      "lat": -0.1414935,
      "lon": 34.5997188
    },
    {
      "type": "node",
      "id": 10946845876,
      "lat": -0.1413024,
      "lon": 34.6004517
    },
    {
      "type": "node",
      "id": 10946845877,
      "lat": -0.1413728,
      "lon": 34.6013894
    },
    {
      "type": "node",
      "id": 10946845878,
      "lat": -0.1418838,
      "lon": 34.6020199
    },
    {
      "type": "node",
      "id": 10946845879,
      "lat": -0.1422978,
      "lon": 34.6027836
    },
    {
      "type": "node",
      "id": 10946849222,
      "lat": -0.1406669,
      "lon": 34.5801134
    },
    {
      "type": "node",
      "id": 10946849223,
      "lat": -0.1398536,
      "lon": 34.5799647
    },
    {
      "type": "node",
      "id": 10946849224,
      "lat": -0.1394361,
      "lon": 34.5799207
    },
    {
      "type": "node",
      "id": 10946849225,
      "lat": -0.1382918,
      "lon": 34.5799958
    },
    {
      "type": "node",
      "id": 10946849226,
      "lat": -0.1380959,
      "lon": 34.5800086
    },
    {
      "type": "node",
      "id": 10946849227,
      "lat": -0.137195,
      "lon": 34.5800526
    },
    {
      "type": "node",
      "id": 10946849228,
      "lat": -0.1369094,
      "lon": 34.5800306
    },
    {
      "type": "node",
      "id": 10946849229,
      "lat": -0.1364919,
      "lon": 34.5800526
    },
    {
      "type": "node",
      "id": 10946849230,
      "lat": -0.1362722,
      "lon": 34.5800746
    },
    {
      "type": "node",
      "id": 10946849231,
      "lat": -0.1360587,
      "lon": 34.5801269
    },
    {
      "type": "node",
      "id": 10946849232,
      "lat": -0.1351077,
      "lon": 34.5803602
    },
    {
      "type": "node",
      "id": 10946849233,
      "lat": -0.1345804,
      "lon": 34.5806459
    },
    {
      "type": "node",
      "id": 10946849234,
      "lat": -0.1340091,
      "lon": 34.5809096
    },
    {
      "type": "node",
      "id": 10946849235,
      "lat": -0.1336356,
      "lon": 34.5811073
    },
    {
      "type": "node",
      "id": 10946849236,
      "lat": -0.1331962,
      "lon": 34.5813051
    },
    {
      "type": "node",
      "id": 10946849237,
      "lat": -0.1329325,
      "lon": 34.5814809
    },
    {
      "type": "node",
      "id": 10946849238,
      "lat": -0.1326469,
      "lon": 34.5816567
    },
    {
      "type": "node",
      "id": 10946849239,
      "lat": -0.1323173,
      "lon": 34.5819204
    },
    {
      "type": "node",
      "id": 10946849240,
      "lat": -0.1321416,
      "lon": 34.5820962
    },
    {
      "type": "node",
      "id": 10946849241,
      "lat": -0.131891,
      "lon": 34.5823969
    },
    {
      "type": "node",
      "id": 10946849242,
      "lat": -0.131812,
      "lon": 34.5824917
    },
    {
      "type": "node",
      "id": 10946849243,
      "lat": -0.1314604,
      "lon": 34.5827774
    },
    {
      "type": "node",
      "id": 10946849244,
      "lat": -0.1313054,
      "lon": 34.5829033
    },
    {
      "type": "node",
      "id": 10946849245,
      "lat": -0.1311597,
      "lon": 34.5830218
    },
    {
      "type": "node",
      "id": 10946849246,
      "lat": -0.1311089,
      "lon": 34.583063
    },
    {
      "type": "node",
      "id": 10946849247,
      "lat": -0.1310329,
      "lon": 34.5831391
    },
    {
      "type": "node",
      "id": 10946849248,
      "lat": -0.1308452,
      "lon": 34.5833267
    },
    {
      "type": "node",
      "id": 10946849249,
      "lat": -0.1304497,
      "lon": 34.5837223
    },
    {
      "type": "node",
      "id": 10946849250,
      "lat": -0.13023,
      "lon": 34.5840299
    },
    {
      "type": "node",
      "id": 10946849251,
      "lat": -0.1299444,
      "lon": 34.5842057
    },
    {
      "type": "node",
      "id": 10946849252,
      "lat": -0.1295118,
      "lon": 34.5843343
    },
    {
      "type": "node",
      "id": 10946849253,
      "lat": -0.1293539,
      "lon": 34.5843813
    },
    {
      "type": "node",
      "id": 10946849254,
      "lat": -0.1291314,
      "lon": 34.5844474
    },
    {
      "type": "node",
      "id": 10946849255,
      "lat": -0.1289553,
      "lon": 34.5844923
    },
    {
      "type": "node",
      "id": 10946849256,
      "lat": -0.128697,
      "lon": 34.5845582
    },
    {
      "type": "node",
      "id": 10946849257,
      "lat": -0.1280109,
      "lon": 34.5847331
    },
    {
      "type": "node",
      "id": 10946849258,
      "lat": -0.1277644,
      "lon": 34.5847476
    },
    {
      "type": "node",
      "id": 10946849259,
      "lat": -0.1276374,
      "lon": 34.584755
    },
    {
      "type": "node",
      "id": 10946849260,
      "lat": -0.1273737,
      "lon": 34.5848429
    },
    {
      "type": "node",
      "id": 10946849261,
      "lat": -0.1270441,
      "lon": 34.5849308
    },
    {
      "type": "node",
      "id": 10946849262,
      "lat": -0.1266927,
      "lon": 34.5850603
    },
    {
      "type": "node",
      "id": 10946849263,
      "lat": -0.1266267,
      "lon": 34.5850846
    },
    {
      "type": "node",
      "id": 10946849264,
      "lat": -0.1264289,
      "lon": 34.5850627
    },
    {
      "type": "node",
      "id": 10946849265,
      "lat": -0.1262759,
      "lon": 34.5850391
    },
    {
      "type": "node",
      "id": 10946849266,
      "lat": -0.1261433,
      "lon": 34.5850187
    },
    {
      "type": "node",
      "id": 10946849267,
      "lat": -0.1259016,
      "lon": 34.5849968
    },
    {
      "type": "node",
      "id": 10946849268,
      "lat": -0.1257039,
      "lon": 34.5849748
    },
    {
      "type": "node",
      "id": 10946849269,
      "lat": -0.1253523,
      "lon": 34.5850187
    },
    {
      "type": "node",
      "id": 10946849270,
      "lat": -0.1251546,
      "lon": 34.5851286
    },
    {
      "type": "node",
      "id": 10946849271,
      "lat": -0.1249129,
      "lon": 34.5853044
    },
    {
      "type": "node",
      "id": 10946849272,
      "lat": -0.1245174,
      "lon": 34.5855022
    },
    {
      "type": "node",
      "id": 10946849273,
      "lat": -0.1243416,
      "lon": 34.5855022
    },
    {
      "type": "node",
      "id": 10946849274,
      "lat": -0.1243304,
      "lon": 34.585504
    },
    {
      "type": "node",
      "id": 10946849275,
      "lat": -0.124078,
      "lon": 34.5855461
    },
    {
      "type": "node",
      "id": 10946849276,
      "lat": -0.1237484,
      "lon": 34.5856779
    },
    {
      "type": "node",
      "id": 10946849277,
      "lat": -0.1235506,
      "lon": 34.5859197
    },
    {
      "type": "node",
      "id": 10946849278,
      "lat": -0.1233529,
      "lon": 34.5861614
    },
    {
      "type": "node",
      "id": 10946849279,
      "lat": -0.1231112,
      "lon": 34.586469
    },
    {
      "type": "node",
      "id": 10946849280,
      "lat": -0.1228476,
      "lon": 34.5866448
    },
    {
      "type": "node",
      "id": 10946849281,
      "lat": -0.1220097,
      "lon": 34.5869305
    },
    {
      "type": "node",
      "id": 10946849282,
      "lat": -0.1218808,
      "lon": 34.5869744
    },
    {
      "type": "node",
      "id": 10946849283,
      "lat": -0.1218043,
      "lon": 34.5869834
    },
    {
      "type": "node",
      "id": 10946849284,
      "lat": -0.1217818,
      "lon": 34.5869892
    },
    {
      "type": "node",
      "id": 10946849285,
      "lat": -0.1217738,
      "lon": 34.5869895
    },
    {
      "type": "node",
      "id": 10946849286,
      "lat": -0.1217459,
      "lon": 34.5869903
    },
    {
      "type": "node",
      "id": 10946849287,
      "lat": -0.1215073,
      "lon": 34.5870184
    },
    {
      "type": "node",
      "id": 10946849288,
      "lat": -0.1212436,
      "lon": 34.5870623
    },
    {
      "type": "node",
      "id": 10946849289,
      "lat": -0.1210152,
      "lon": 34.5869195
    },
    {
      "type": "node",
      "id": 10946849290,
      "lat": -0.1209057,
      "lon": 34.5868511
    },
    {
      "type": "node",
      "id": 10946849291,
      "lat": -0.1208921,
      "lon": 34.5868426
    },
    {
      "type": "node",
      "id": 10946849292,
      "lat": -0.1206284,
      "lon": 34.5868426
    },
    {
      "type": "node",
      "id": 10946849293,
      "lat": -0.1206086,
      "lon": 34.5868426
    },
    {
      "type": "node",
      "id": 10946849294,
      "lat": -0.1204087,
      "lon": 34.5868426
    },
    {
      "type": "node",
      "id": 10946849295,
      "lat": -0.1203208,
      "lon": 34.5867107
    },
    {
      "type": "node",
      "id": 10946849296,
      "lat": -0.120189,
      "lon": 34.5863152
    },
    {
      "type": "node",
      "id": 10946849297,
      "lat": -0.1200791,
      "lon": 34.5860955
    },
    {
      "type": "node",
      "id": 10946849298,
      "lat": -0.1198594,
      "lon": 34.5858098
    },
    {
      "type": "node",
      "id": 10946849299,
      "lat": -0.1198036,
      "lon": 34.585726
    },
    {
      "type": "node",
      "id": 10946849300,
      "lat": -0.1196836,
      "lon": 34.5855461
    },
    {
      "type": "node",
      "id": 10946849301,
      "lat": -0.119376,
      "lon": 34.5855022
    },
    {
      "type": "node",
      "id": 10946849302,
      "lat": -0.1192003,
      "lon": 34.5855241
    },
    {
      "type": "node",
      "id": 10946849303,
      "lat": -0.1189805,
      "lon": 34.5854582
    },
    {
      "type": "node",
      "id": 10946849304,
      "lat": -0.1185411,
      "lon": 34.5853044
    },
    {
      "type": "node",
      "id": 10946849305,
      "lat": -0.1182335,
      "lon": 34.5852385
    },
    {
      "type": "node",
      "id": 10946849306,
      "lat": -0.1179479,
      "lon": 34.5852385
    },
    {
      "type": "node",
      "id": 10946849307,
      "lat": -0.1174865,
      "lon": 34.5853703
    },
    {
      "type": "node",
      "id": 10946849308,
      "lat": -0.1173107,
      "lon": 34.5854802
    },
    {
      "type": "node",
      "id": 10946849309,
      "lat": -0.117091,
      "lon": 34.585612
    },
    {
      "type": "node",
      "id": 10946849310,
      "lat": -0.1169152,
      "lon": 34.585634
    },
    {
      "type": "node",
      "id": 10946849311,
      "lat": -0.1166735,
      "lon": 34.5856999
    },
    {
      "type": "node",
      "id": 10946849312,
      "lat": -0.1164758,
      "lon": 34.5859856
    },
    {
      "type": "node",
      "id": 10946849313,
      "lat": -0.116344,
      "lon": 34.5861834
    },
    {
      "type": "node",
      "id": 10946849314,
      "lat": -0.1162121,
      "lon": 34.5863811
    },
    {
      "type": "node",
      "id": 10946849315,
      "lat": -0.1160144,
      "lon": 34.5865569
    },
    {
      "type": "node",
      "id": 10946849316,
      "lat": -0.1156848,
      "lon": 34.5866668
    },
    {
      "type": "node",
      "id": 10946849317,
      "lat": -0.1154211,
      "lon": 34.5867986
    },
    {
      "type": "node",
      "id": 10946849318,
      "lat": -0.1150696,
      "lon": 34.5869524
    },
    {
      "type": "node",
      "id": 10946849319,
      "lat": -0.1148279,
      "lon": 34.5870184
    },
    {
      "type": "node",
      "id": 11082756437,
      "lat": -0.1162924,
      "lon": 34.5862608
    },
    {
      "type": "node",
      "id": 10946849320,
      "lat": -0.1145572,
      "lon": 34.5872054
    },
    {
      "type": "node",
      "id": 10946849321,
      "lat": -0.1144647,
      "lon": 34.5873672
    },
    {
      "type": "node",
      "id": 10946849322,
      "lat": -0.1144031,
      "lon": 34.5874442
    },
    {
      "type": "node",
      "id": 10946849323,
      "lat": -0.1143723,
      "lon": 34.5875906
    },
    {
      "type": "node",
      "id": 10946849324,
      "lat": -0.1143646,
      "lon": 34.5877062
    },
    {
      "type": "node",
      "id": 10946849325,
      "lat": -0.1143646,
      "lon": 34.5878911
    },
    {
      "type": "node",
      "id": 10946849326,
      "lat": -0.11438,
      "lon": 34.5880914
    },
    {
      "type": "node",
      "id": 10946849327,
      "lat": -0.1143184,
      "lon": 34.5882609
    },
    {
      "type": "node",
      "id": 10946849328,
      "lat": -0.114249,
      "lon": 34.5884227
    },
    {
      "type": "node",
      "id": 10946849329,
      "lat": -0.1140795,
      "lon": 34.5886461
    },
    {
      "type": "node",
      "id": 10946849330,
      "lat": -0.1139178,
      "lon": 34.5888387
    },
    {
      "type": "node",
      "id": 10946849331,
      "lat": -0.1137868,
      "lon": 34.5890852
    },
    {
      "type": "node",
      "id": 10946849332,
      "lat": -0.1137269,
      "lon": 34.5892431
    },
    {
      "type": "node",
      "id": 10946849333,
      "lat": -0.1137021,
      "lon": 34.5893087
    },
    {
      "type": "node",
      "id": 10946849334,
      "lat": -0.1136327,
      "lon": 34.5895321
    },
    {
      "type": "node",
      "id": 10946849335,
      "lat": -0.1136482,
      "lon": 34.5898171
    },
    {
      "type": "node",
      "id": 10946849336,
      "lat": -0.1135942,
      "lon": 34.5899943
    },
    {
      "type": "node",
      "id": 10946849337,
      "lat": -0.1135095,
      "lon": 34.590264
    },
    {
      "type": "node",
      "id": 10946849338,
      "lat": -0.1134236,
      "lon": 34.5906419
    },
    {
      "type": "node",
      "id": 10946849339,
      "lat": -0.1133666,
      "lon": 34.5909955
    },
    {
      "type": "node",
      "id": 10946849340,
      "lat": -0.1133324,
      "lon": 34.5915658
    },
    {
      "type": "node",
      "id": 10946849341,
      "lat": -0.113321,
      "lon": 34.5920905
    },
    {
      "type": "node",
      "id": 10946849342,
      "lat": -0.1132982,
      "lon": 34.5923187
    },
    {
      "type": "node",
      "id": 10946849343,
      "lat": -0.1132888,
      "lon": 34.5924436
    },
    {
      "type": "node",
      "id": 10946849344,
      "lat": -0.113264,
      "lon": 34.5927749
    },
    {
      "type": "node",
      "id": 10946849345,
      "lat": -0.1132183,
      "lon": 34.5933567
    },
    {
      "type": "node",
      "id": 10946849346,
      "lat": -0.1131157,
      "lon": 34.5937673
    },
    {
      "type": "node",
      "id": 10946849347,
      "lat": -0.1130406,
      "lon": 34.5940076
    },
    {
      "type": "node",
      "id": 10946849348,
      "lat": -0.1128876,
      "lon": 34.5944973
    },
    {
      "type": "node",
      "id": 10946849349,
      "lat": -0.1127393,
      "lon": 34.5951019
    },
    {
      "type": "node",
      "id": 10946849350,
      "lat": -0.1126139,
      "lon": 34.5957749
    },
    {
      "type": "node",
      "id": 10946849351,
      "lat": -0.1125454,
      "lon": 34.5962996
    },
    {
      "type": "node",
      "id": 10946849352,
      "lat": -0.1124656,
      "lon": 34.5967787
    },
    {
      "type": "node",
      "id": 10946849353,
      "lat": -0.11242,
      "lon": 34.5971437
    },
    {
      "type": "node",
      "id": 10946849354,
      "lat": -0.1124186,
      "lon": 34.5971667
    },
    {
      "type": "node",
      "id": 10946849355,
      "lat": -0.1123857,
      "lon": 34.5977026
    },
    {
      "type": "node",
      "id": 10946849356,
      "lat": -0.1123515,
      "lon": 34.5981703
    },
    {
      "type": "node",
      "id": 10946849357,
      "lat": -0.1123401,
      "lon": 34.5985239
    },
    {
      "type": "node",
      "id": 10946849358,
      "lat": -0.1122945,
      "lon": 34.5987292
    },
    {
      "type": "node",
      "id": 10951564128,
      "lat": -0.1123771,
      "lon": 34.602946
    },
    {
      "type": "node",
      "id": 10951564129,
      "lat": -0.1124727,
      "lon": 34.6029383
    },
    {
      "type": "node",
      "id": 10951564130,
      "lat": -0.1133492,
      "lon": 34.6025399
    },
    {
      "type": "node",
      "id": 10951564131,
      "lat": -0.1138272,
      "lon": 34.6020618
    },
    {
      "type": "node",
      "id": 10951564132,
      "lat": -0.1138692,
      "lon": 34.6019817
    },
    {
      "type": "node",
      "id": 10951564133,
      "lat": -0.1142655,
      "lon": 34.601225
    },
    {
      "type": "node",
      "id": 10951564134,
      "lat": -0.114256,
      "lon": 34.6007496
    },
    {
      "type": "node",
      "id": 10951564135,
      "lat": -0.1142755,
      "lon": 34.6006911
    },
    {
      "type": "node",
      "id": 10951564136,
      "lat": -0.1142518,
      "lon": 34.6005411
    },
    {
      "type": "node",
      "id": 10951564137,
      "lat": -0.1142476,
      "lon": 34.6003274
    },
    {
      "type": "node",
      "id": 10951564138,
      "lat": -0.1142242,
      "lon": 34.6002836
    },
    {
      "type": "node",
      "id": 10951564139,
      "lat": -0.1141187,
      "lon": 34.6000853
    },
    {
      "type": "node",
      "id": 10951564140,
      "lat": -0.1140982,
      "lon": 34.6000262
    },
    {
      "type": "node",
      "id": 10951564141,
      "lat": -0.1140695,
      "lon": 34.5999929
    },
    {
      "type": "node",
      "id": 10951564142,
      "lat": -0.1138175,
      "lon": 34.5997012
    },
    {
      "type": "node",
      "id": 10951564143,
      "lat": -0.1133891,
      "lon": 34.5993318
    },
    {
      "type": "node",
      "id": 10951564144,
      "lat": -0.1129902,
      "lon": 34.5991545
    },
    {
      "type": "node",
      "id": 10951564145,
      "lat": -0.1127834,
      "lon": 34.5990215
    },
    {
      "type": "node",
      "id": 2544721493,
      "lat": -0.0874763,
      "lon": 34.4169364
    },
    {
      "type": "node",
      "id": 6121683113,
      "lat": -0.0851841,
      "lon": 34.4174477
    },
    {
      "type": "node",
      "id": 2544721399,
      "lat": -0.0795418,
      "lon": 34.4187064
    },
    {
      "type": "node",
      "id": 2544721253,
      "lat": -0.0702644,
      "lon": 34.4252982
    },
    {
      "type": "node",
      "id": 10956887723,
      "lat": -0.0696933,
      "lon": 34.4260417
    },
    {
      "type": "node",
      "id": 2544721080,
      "lat": -0.0640388,
      "lon": 34.4315238
    },
    {
      "type": "node",
      "id": 2544721178,
      "lat": -0.0670296,
      "lon": 34.4295097
    },
    {
      "type": "node",
      "id": 4713565295,
      "lat": -0.0613415,
      "lon": 34.437422
    },
    {
      "type": "node",
      "id": 2544720966,
      "lat": -0.057447,
      "lon": 34.4447074
    },
    {
      "type": "node",
      "id": 2544721005,
      "lat": -0.0594612,
      "lon": 34.4415336
    },
    {
      "type": "node",
      "id": 10956885558,
      "lat": -0.0549859,
      "lon": 34.4479093
    },
    {
      "type": "node",
      "id": 2544720743,
      "lat": -0.0511604,
      "lon": 34.4528861
    },
    {
      "type": "node",
      "id": 2544720653,
      "lat": -0.0478645,
      "lon": 34.4585014
    },
    {
      "type": "node",
      "id": 2544720666,
      "lat": -0.0483528,
      "lon": 34.4555106
    },
    {
      "type": "node",
      "id": 2544720533,
      "lat": -0.0439583,
      "lon": 34.461309
    },
    {
      "type": "node",
      "id": 2544720476,
      "lat": -0.0433479,
      "lon": 34.4675346
    },
    {
      "type": "node",
      "id": 4509551498,
      "lat": -0.0434293,
      "lon": 34.4667044
    },
    {
      "type": "node",
      "id": 2544720324,
      "lat": -0.0398689,
      "lon": 34.4758964
    },
    {
      "type": "node",
      "id": 2544720405,
      "lat": -0.0419441,
      "lon": 34.4721122
    },
    {
      "type": "node",
      "id": 4509550473,
      "lat": -0.0417727,
      "lon": 34.4724247
    },
    {
      "type": "node",
      "id": 2544720065,
      "lat": -0.0336433,
      "lon": 34.4849296
    },
    {
      "type": "node",
      "id": 2544719913,
      "lat": -0.0304695,
      "lon": 34.4918876
    },
    {
      "type": "node",
      "id": 2544720273,
      "lat": -0.0379768,
      "lon": 34.5626884
    },
    {
      "type": "node",
      "id": 2544720342,
      "lat": -0.0405403,
      "lon": 34.5675101
    },
    {
      "type": "node",
      "id": 10956852790,
      "lat": -0.0399699,
      "lon": 34.5662561
    },
    {
      "type": "node",
      "id": 2544720308,
      "lat": -0.0392586,
      "lon": 34.5737357
    },
    {
      "type": "node",
      "id": 10946849555,
      "lat": -0.0383891,
      "lon": 34.5763007
    },
    {
      "type": "node",
      "id": 2544720280,
      "lat": -0.0380379,
      "lon": 34.5773368
    },
    {
      "type": "node",
      "id": 2544719897,
      "lat": -0.0301643,
      "lon": 34.5003104
    },
    {
      "type": "node",
      "id": 2544719818,
      "lat": -0.0288826,
      "lon": 34.5069022
    },
    {
      "type": "node",
      "id": 2544719722,
      "lat": -0.0273567,
      "lon": 34.5115409
    },
    {
      "type": "node",
      "id": 11044098416,
      "lat": -0.0245525,
      "lon": 34.5176886
    },
    {
      "type": "node",
      "id": 2544719463,
      "lat": -0.0231453,
      "lon": 34.5228934
    },
    {
      "type": "node",
      "id": 2544719523,
      "lat": -0.0241829,
      "lon": 34.5184989
    },
    {
      "type": "node",
      "id": 2544719509,
      "lat": -0.0238777,
      "lon": 34.5491386
    },
    {
      "type": "node",
      "id": 2544719422,
      "lat": -0.0222298,
      "lon": 34.5257011
    },
    {
      "type": "node",
      "id": 2544719204,
      "lat": -0.0190559,
      "lon": 34.5314994
    },
    {
      "type": "node",
      "id": 2651953160,
      "lat": -0.0166242,
      "lon": 34.5341002
    },
    {
      "type": "node",
      "id": 4715476970,
      "lat": -0.0169932,
      "lon": 34.5337056
    },
    {
      "type": "node",
      "id": 4715492108,
      "lat": -0.0178966,
      "lon": 34.5327393
    },
    {
      "type": "node",
      "id": 2544719337,
      "lat": -0.0210701,
      "lon": 34.5441337
    },
    {
      "type": "node",
      "id": 2544719939,
      "lat": -0.0309578,
      "lon": 34.562139
    },
    {
      "type": "node",
      "id": 2544720092,
      "lat": -0.0342537,
      "lon": 34.562139
    },
    {
      "type": "node",
      "id": 2651953165,
      "lat": -0.0258279,
      "lon": 34.5641948
    },
    {
      "type": "node",
      "id": 2544719389,
      "lat": -0.0218635,
      "lon": 34.5537162
    },
    {
      "type": "node",
      "id": 2544719443,
      "lat": -0.0212032,
      "lon": 34.5599797
    },
    {
      "type": "node",
      "id": 2544719527,
      "lat": -0.0221474,
      "lon": 34.563529
    },
    {
      "type": "node",
      "id": 2544720035,
      "lat": -0.033155,
      "lon": 34.5837455
    },
    {
      "type": "node",
      "id": 2544719719,
      "lat": -0.0272346,
      "lon": 34.5837455
    },
    {
      "type": "node",
      "id": 2544719222,
      "lat": -0.0194832,
      "lon": 34.5875297
    },
    {
      "type": "node",
      "id": 2544719439,
      "lat": -0.022657,
      "lon": 34.5867362
    },
    {
      "type": "node",
      "id": 2544718988,
      "lat": -0.0135628,
      "lon": 34.5895438
    },
    {
      "type": "node",
      "id": 2544747030,
      "lat": 0.0000481,
      "lon": 34.5897269
    },
    {
      "type": "node",
      "id": 2544718805,
      "lat": -0.0074592,
      "lon": 34.5922904
    },
    {
      "type": "node",
      "id": 2544718900,
      "lat": -0.0096565,
      "lon": 34.58991
    },
    {
      "type": "node",
      "id": 2544747127,
      "lat": 0.0030388,
      "lon": 34.5922904
    },
    {
      "type": "node",
      "id": 4350784920,
      "lat": 0.0025862,
      "lon": 34.5919025
    },
    {
      "type": "node",
      "id": 2544747166,
      "lat": 0.0046257,
      "lon": 34.595098
    },
    {
      "type": "node",
      "id": 2544747247,
      "lat": 0.0080437,
      "lon": 34.5993095
    },
    {
      "type": "node",
      "id": 11220321629,
      "lat": 0.0074386,
      "lon": 34.598564
    },
    {
      "type": "node",
      "id": 10946848824,
      "lat": -0.1674261,
      "lon": 34.6064683
    },
    {
      "type": "node",
      "id": 10946848825,
      "lat": -0.1682542,
      "lon": 34.6063922
    },
    {
      "type": "node",
      "id": 10946848826,
      "lat": -0.1686352,
      "lon": 34.6059592
    },
    {
      "type": "node",
      "id": 10946848827,
      "lat": -0.1688792,
      "lon": 34.6053266
    },
    {
      "type": "node",
      "id": 10946848828,
      "lat": -0.1694754,
      "lon": 34.604434
    },
    {
      "type": "node",
      "id": 10946848829,
      "lat": -0.1703233,
      "lon": 34.6051396
    },
    {
      "type": "node",
      "id": 10946848830,
      "lat": -0.1698629,
      "lon": 34.6058367
    },
    {
      "type": "node",
      "id": 10946848831,
      "lat": -0.1691993,
      "lon": 34.6064861
    },
    {
      "type": "node",
      "id": 10946848832,
      "lat": -0.1690595,
      "lon": 34.6071412
    },
    {
      "type": "node",
      "id": 10946848833,
      "lat": -0.1685765,
      "lon": 34.6080044
    },
    {
      "type": "node",
      "id": 10946848834,
      "lat": -0.1680713,
      "lon": 34.6085916
    },
    {
      "type": "node",
      "id": 10946848835,
      "lat": -0.1678548,
      "lon": 34.6092039
    },
    {
      "type": "node",
      "id": 10967939305,
      "lat": -0.1689167,
      "lon": 34.604647
    },
    {
      "type": "node",
      "id": 10967939306,
      "lat": -0.1700721,
      "lon": 34.6046292
    },
    {
      "type": "node",
      "id": 10946848836,
      "lat": -0.1672143,
      "lon": 34.61001
    },
    {
      "type": "node",
      "id": 10946848814,
      "lat": -0.1622966,
      "lon": 34.6034575
    },
    {
      "type": "node",
      "id": 10946848815,
      "lat": -0.1620107,
      "lon": 34.6043835
    },
    {
      "type": "node",
      "id": 10946848818,
      "lat": -0.1629163,
      "lon": 34.6060207
    },
    {
      "type": "node",
      "id": 10946848819,
      "lat": -0.1636924,
      "lon": 34.6063331
    },
    {
      "type": "node",
      "id": 10946848820,
      "lat": -0.1648036,
      "lon": 34.6068466
    },
    {
      "type": "node",
      "id": 10946848821,
      "lat": -0.1655736,
      "lon": 34.6071303
    },
    {
      "type": "node",
      "id": 10946848822,
      "lat": -0.1659378,
      "lon": 34.6072246
    },
    {
      "type": "node",
      "id": 10946848823,
      "lat": -0.1669766,
      "lon": 34.6067212
    },
    {
      "type": "node",
      "id": 10946848856,
      "lat": -0.1609726,
      "lon": 34.6089502
    },
    {
      "type": "node",
      "id": 10946848857,
      "lat": -0.1608441,
      "lon": 34.6083177
    },
    {
      "type": "node",
      "id": 10967922500,
      "lat": -0.1620696,
      "lon": 34.604887
    },
    {
      "type": "node",
      "id": 10967922501,
      "lat": -0.1620142,
      "lon": 34.6050235
    },
    {
      "type": "node",
      "id": 10967922502,
      "lat": -0.1622834,
      "lon": 34.605207
    },
    {
      "type": "node",
      "id": 10967922503,
      "lat": -0.1625453,
      "lon": 34.6057472
    },
    {
      "type": "node",
      "id": 10967922504,
      "lat": -0.1665663,
      "lon": 34.607185
    },
    {
      "type": "node",
      "id": 10946848837,
      "lat": -0.1666278,
      "lon": 34.6105608
    },
    {
      "type": "node",
      "id": 10946848838,
      "lat": -0.1661829,
      "lon": 34.6110452
    },
    {
      "type": "node",
      "id": 10946848839,
      "lat": -0.1657778,
      "lon": 34.6116611
    },
    {
      "type": "node",
      "id": 10946848840,
      "lat": -0.1653911,
      "lon": 34.6121175
    },
    {
      "type": "node",
      "id": 10946848841,
      "lat": -0.1648223,
      "lon": 34.61261
    },
    {
      "type": "node",
      "id": 10946848842,
      "lat": -0.1644609,
      "lon": 34.6130087
    },
    {
      "type": "node",
      "id": 10946848843,
      "lat": -0.1640503,
      "lon": 34.6135694
    },
    {
      "type": "node",
      "id": 10946848844,
      "lat": -0.1632273,
      "lon": 34.6146132
    },
    {
      "type": "node",
      "id": 10946848845,
      "lat": -0.162509,
      "lon": 34.6153626
    },
    {
      "type": "node",
      "id": 10946848846,
      "lat": -0.1618891,
      "lon": 34.6159359
    },
    {
      "type": "node",
      "id": 10946848854,
      "lat": -0.1605955,
      "lon": 34.6106963
    },
    {
      "type": "node",
      "id": 10946848855,
      "lat": -0.1607871,
      "lon": 34.6099264
    },
    {
      "type": "node",
      "id": 10946848801,
      "lat": -0.1603905,
      "lon": 34.6075119
    },
    {
      "type": "node",
      "id": 10946848802,
      "lat": -0.1596721,
      "lon": 34.6067807
    },
    {
      "type": "node",
      "id": 10946848803,
      "lat": -0.1591431,
      "lon": 34.6060995
    },
    {
      "type": "node",
      "id": 10946848804,
      "lat": -0.1596905,
      "lon": 34.6055806
    },
    {
      "type": "node",
      "id": 10946848805,
      "lat": -0.159701,
      "lon": 34.6050541
    },
    {
      "type": "node",
      "id": 10946848806,
      "lat": -0.1597474,
      "lon": 34.6043826
    },
    {
      "type": "node",
      "id": 10946848807,
      "lat": -0.1598339,
      "lon": 34.6038084
    },
    {
      "type": "node",
      "id": 10946848808,
      "lat": -0.1599237,
      "lon": 34.6031642
    },
    {
      "type": "node",
      "id": 10946848851,
      "lat": -0.1600724,
      "lon": 34.6141067
    },
    {
      "type": "node",
      "id": 10946848852,
      "lat": -0.1602667,
      "lon": 34.6120982
    },
    {
      "type": "node",
      "id": 10946848853,
      "lat": -0.1604278,
      "lon": 34.6113344
    },
    {
      "type": "node",
      "id": 10946848847,
      "lat": -0.1612882,
      "lon": 34.6165179
    },
    {
      "type": "node",
      "id": 10946848848,
      "lat": -0.1606047,
      "lon": 34.6171728
    },
    {
      "type": "node",
      "id": 10946848849,
      "lat": -0.1599336,
      "lon": 34.6173905
    },
    {
      "type": "node",
      "id": 10946848850,
      "lat": -0.1597211,
      "lon": 34.6168054
    },
    {
      "type": "node",
      "id": 10946845890,
      "lat": -0.1477736,
      "lon": 34.604155
    },
    {
      "type": "node",
      "id": 10946845891,
      "lat": -0.1480671,
      "lon": 34.6036054
    },
    {
      "type": "node",
      "id": 10946845892,
      "lat": -0.1484409,
      "lon": 34.6031542
    },
    {
      "type": "node",
      "id": 10946845898,
      "lat": -0.1519385,
      "lon": 34.6030479
    },
    {
      "type": "node",
      "id": 10946845899,
      "lat": -0.1522479,
      "lon": 34.6037642
    },
    {
      "type": "node",
      "id": 10946845900,
      "lat": -0.1521217,
      "lon": 34.6044177
    },
    {
      "type": "node",
      "id": 10946845901,
      "lat": -0.1517251,
      "lon": 34.6052105
    },
    {
      "type": "node",
      "id": 10946845902,
      "lat": -0.1511881,
      "lon": 34.6059996
    },
    {
      "type": "node",
      "id": 10946845903,
      "lat": -0.1508016,
      "lon": 34.60655
    },
    {
      "type": "node",
      "id": 10946845904,
      "lat": -0.1502846,
      "lon": 34.6074135
    },
    {
      "type": "node",
      "id": 10946848605,
      "lat": -0.1500374,
      "lon": 34.6079429
    },
    {
      "type": "node",
      "id": 10946848606,
      "lat": -0.1495593,
      "lon": 34.6087465
    },
    {
      "type": "node",
      "id": 10946848607,
      "lat": -0.1489362,
      "lon": 34.6098875
    },
    {
      "type": "node",
      "id": 10946848608,
      "lat": -0.148401,
      "lon": 34.6107891
    },
    {
      "type": "node",
      "id": 10946848609,
      "lat": -0.1481122,
      "lon": 34.6115618
    },
    {
      "type": "node",
      "id": 10946848610,
      "lat": -0.1476874,
      "lon": 34.6126663
    },
    {
      "type": "node",
      "id": 10946845880,
      "lat": -0.1425141,
      "lon": 34.6033886
    },
    {
      "type": "node",
      "id": 10946845881,
      "lat": -0.1428293,
      "lon": 34.6039792
    },
    {
      "type": "node",
      "id": 10946845882,
      "lat": -0.1432076,
      "lon": 34.6043769
    },
    {
      "type": "node",
      "id": 10946845883,
      "lat": -0.1437316,
      "lon": 34.604826
    },
    {
      "type": "node",
      "id": 10946845884,
      "lat": -0.1443591,
      "lon": 34.6051371
    },
    {
      "type": "node",
      "id": 10946845885,
      "lat": -0.1450176,
      "lon": 34.6053663
    },
    {
      "type": "node",
      "id": 10946845886,
      "lat": -0.1455652,
      "lon": 34.6054716
    },
    {
      "type": "node",
      "id": 10946845887,
      "lat": -0.1461635,
      "lon": 34.605399
    },
    {
      "type": "node",
      "id": 10946845888,
      "lat": -0.146712,
      "lon": 34.6051177
    },
    {
      "type": "node",
      "id": 10946845889,
      "lat": -0.1473623,
      "lon": 34.6046056
    },
    {
      "type": "node",
      "id": 10946848611,
      "lat": -0.1473418,
      "lon": 34.6132213
    },
    {
      "type": "node",
      "id": 10946848612,
      "lat": -0.147145,
      "lon": 34.6138575
    },
    {
      "type": "node",
      "id": 10946848613,
      "lat": -0.1467457,
      "lon": 34.6147507
    },
    {
      "type": "node",
      "id": 10946848614,
      "lat": -0.1462227,
      "lon": 34.6155757
    },
    {
      "type": "node",
      "id": 10946848622,
      "lat": -0.1480196,
      "lon": 34.6210954
    },
    {
      "type": "node",
      "id": 10946848623,
      "lat": -0.1488964,
      "lon": 34.6213969
    },
    {
      "type": "node",
      "id": 10946848624,
      "lat": -0.1496948,
      "lon": 34.6212664
    },
    {
      "type": "node",
      "id": 10946848625,
      "lat": -0.1502249,
      "lon": 34.621346
    },
    {
      "type": "node",
      "id": 10946848626,
      "lat": -0.1508137,
      "lon": 34.6214439
    },
    {
      "type": "node",
      "id": 10946848627,
      "lat": -0.1514526,
      "lon": 34.6217386
    },
    {
      "type": "node",
      "id": 10946848628,
      "lat": -0.1515416,
      "lon": 34.6226889
    },
    {
      "type": "node",
      "id": 10946848629,
      "lat": -0.1516922,
      "lon": 34.6233972
    },
    {
      "type": "node",
      "id": 10946848630,
      "lat": -0.1518996,
      "lon": 34.6239588
    },
    {
      "type": "node",
      "id": 10946848631,
      "lat": -0.1523316,
      "lon": 34.6248277
    },
    {
      "type": "node",
      "id": 10946848632,
      "lat": -0.1524835,
      "lon": 34.6255842
    },
    {
      "type": "node",
      "id": 10946848633,
      "lat": -0.1520716,
      "lon": 34.6260353
    },
    {
      "type": "node",
      "id": 10946848634,
      "lat": -0.1515498,
      "lon": 34.6264194
    },
    {
      "type": "node",
      "id": 10946848635,
      "lat": -0.1510075,
      "lon": 34.6267934
    },
    {
      "type": "node",
      "id": 10946848636,
      "lat": -0.1505368,
      "lon": 34.6270333
    },
    {
      "type": "node",
      "id": 10946848637,
      "lat": -0.1498428,
      "lon": 34.6271284
    },
    {
      "type": "node",
      "id": 10946848638,
      "lat": -0.1489398,
      "lon": 34.6272934
    },
    {
      "type": "node",
      "id": 10946848639,
      "lat": -0.1482533,
      "lon": 34.6275035
    },
    {
      "type": "node",
      "id": 10946848640,
      "lat": -0.1477019,
      "lon": 34.6276155
    },
    {
      "type": "node",
      "id": 10946848644,
      "lat": -0.1474658,
      "lon": 34.6251147
    },
    {
      "type": "node",
      "id": 10946848645,
      "lat": -0.1475574,
      "lon": 34.6243683
    },
    {
      "type": "node",
      "id": 10946848615,
      "lat": -0.1460207,
      "lon": 34.616497
    },
    {
      "type": "node",
      "id": 10946848616,
      "lat": -0.1461752,
      "lon": 34.6172704
    },
    {
      "type": "node",
      "id": 10946848617,
      "lat": -0.1459418,
      "lon": 34.617983
    },
    {
      "type": "node",
      "id": 10946848618,
      "lat": -0.1459286,
      "lon": 34.6187157
    },
    {
      "type": "node",
      "id": 10946848619,
      "lat": -0.146102,
      "lon": 34.6192992
    },
    {
      "type": "node",
      "id": 10946848620,
      "lat": -0.1466911,
      "lon": 34.620043
    },
    {
      "type": "node",
      "id": 10946848621,
      "lat": -0.1473686,
      "lon": 34.6207248
    },
    {
      "type": "node",
      "id": 10946848649,
      "lat": -0.1445359,
      "lon": 34.6224504
    },
    {
      "type": "node",
      "id": 10946848650,
      "lat": -0.1438121,
      "lon": 34.6223156
    },
    {
      "type": "node",
      "id": 10946848651,
      "lat": -0.1430842,
      "lon": 34.6222689
    },
    {
      "type": "node",
      "id": 10946848652,
      "lat": -0.1422321,
      "lon": 34.6224145
    },
    {
      "type": "node",
      "id": 10946848641,
      "lat": -0.1471051,
      "lon": 34.6273514
    },
    {
      "type": "node",
      "id": 10946848642,
      "lat": -0.1468291,
      "lon": 34.6266623
    },
    {
      "type": "node",
      "id": 10946848643,
      "lat": -0.1471402,
      "lon": 34.6258166
    },
    {
      "type": "node",
      "id": 10946848646,
      "lat": -0.1470266,
      "lon": 34.6239735
    },
    {
      "type": "node",
      "id": 10946848647,
      "lat": -0.1461028,
      "lon": 34.6235245
    },
    {
      "type": "node",
      "id": 10946848648,
      "lat": -0.1454811,
      "lon": 34.6229573
    },
    {
      "type": "node",
      "id": 10946848653,
      "lat": -0.1413702,
      "lon": 34.6228363
    },
    {
      "type": "node",
      "id": 10946848654,
      "lat": -0.140636,
      "lon": 34.6234038
    },
    {
      "type": "node",
      "id": 10946848655,
      "lat": -0.1398457,
      "lon": 34.6244082
    },
    {
      "type": "node",
      "id": 10946848656,
      "lat": -0.1387333,
      "lon": 34.625185
    },
    {
      "type": "node",
      "id": 10946848657,
      "lat": -0.1379057,
      "lon": 34.626201
    },
    {
      "type": "node",
      "id": 10946848658,
      "lat": -0.1375378,
      "lon": 34.626682
    },
    {
      "type": "node",
      "id": 10946848659,
      "lat": -0.1372364,
      "lon": 34.6272995
    },
    {
      "type": "node",
      "id": 10946848660,
      "lat": -0.1366668,
      "lon": 34.6279566
    },
    {
      "type": "node",
      "id": 10946848661,
      "lat": -0.1361587,
      "lon": 34.6286561
    },
    {
      "type": "node",
      "id": 10946848662,
      "lat": -0.1356993,
      "lon": 34.6291266
    },
    {
      "type": "node",
      "id": 10946848663,
      "lat": -0.1352133,
      "lon": 34.6297618
    },
    {
      "type": "node",
      "id": 10946848664,
      "lat": -0.1343859,
      "lon": 34.63051
    },
    {
      "type": "node",
      "id": 10946848665,
      "lat": -0.1337703,
      "lon": 34.6308429
    },
    {
      "type": "node",
      "id": 10946848666,
      "lat": -0.1331929,
      "lon": 34.6311192
    },
    {
      "type": "node",
      "id": 10946848667,
      "lat": -0.1324793,
      "lon": 34.6312797
    },
    {
      "type": "node",
      "id": 10946848668,
      "lat": -0.1320094,
      "lon": 34.6315122
    },
    {
      "type": "node",
      "id": 10946848669,
      "lat": -0.1315284,
      "lon": 34.6318076
    },
    {
      "type": "node",
      "id": 10946848670,
      "lat": -0.1309358,
      "lon": 34.6325776
    },
    {
      "type": "node",
      "id": 10946848671,
      "lat": -0.1303813,
      "lon": 34.6330932
    },
    {
      "type": "node",
      "id": 10946848672,
      "lat": -0.1298256,
      "lon": 34.6335605
    },
    {
      "type": "node",
      "id": 10946848673,
      "lat": -0.1295497,
      "lon": 34.6344181
    },
    {
      "type": "node",
      "id": 10946848674,
      "lat": -0.1289563,
      "lon": 34.6350673
    },
    {
      "type": "node",
      "id": 10946848675,
      "lat": -0.1285397,
      "lon": 34.6355003
    },
    {
      "type": "node",
      "id": 10946848676,
      "lat": -0.1278977,
      "lon": 34.6360535
    },
    {
      "type": "node",
      "id": 10946848677,
      "lat": -0.1271606,
      "lon": 34.6362729
    },
    {
      "type": "node",
      "id": 10946848678,
      "lat": -0.1264615,
      "lon": 34.6362974
    },
    {
      "type": "node",
      "id": 10946848679,
      "lat": -0.1258809,
      "lon": 34.6370128
    },
    {
      "type": "node",
      "id": 10946848680,
      "lat": -0.1251652,
      "lon": 34.6372391
    },
    {
      "type": "node",
      "id": 10946848681,
      "lat": -0.1242258,
      "lon": 34.6373982
    },
    {
      "type": "node",
      "id": 10946848682,
      "lat": -0.1239251,
      "lon": 34.637463
    },
    {
      "type": "node",
      "id": 10946848683,
      "lat": -0.1233823,
      "lon": 34.6379256
    },
    {
      "type": "node",
      "id": 10946848684,
      "lat": -0.1229258,
      "lon": 34.6383442
    },
    {
      "type": "node",
      "id": 10946848685,
      "lat": -0.1224303,
      "lon": 34.6390066
    },
    {
      "type": "node",
      "id": 10946848686,
      "lat": -0.1221654,
      "lon": 34.6394838
    },
    {
      "type": "node",
      "id": 10946848687,
      "lat": -0.1218846,
      "lon": 34.6399994
    },
    {
      "type": "node",
      "id": 10946848688,
      "lat": -0.1215297,
      "lon": 34.6406367
    },
    {
      "type": "node",
      "id": 10946848689,
      "lat": -0.1212288,
      "lon": 34.6411449
    },
    {
      "type": "node",
      "id": 10946848690,
      "lat": -0.1209845,
      "lon": 34.6417
    },
    {
      "type": "node",
      "id": 10946848691,
      "lat": -0.1207805,
      "lon": 34.6423193
    },
    {
      "type": "node",
      "id": 10946848692,
      "lat": -0.1203453,
      "lon": 34.6429614
    },
    {
      "type": "node",
      "id": 10946848693,
      "lat": -0.1195421,
      "lon": 34.6433814
    },
    {
      "type": "node",
      "id": 10946848694,
      "lat": -0.1186984,
      "lon": 34.6441853
    },
    {
      "type": "node",
      "id": 10946848695,
      "lat": -0.1181676,
      "lon": 34.6447959
    },
    {
      "type": "node",
      "id": 10946848696,
      "lat": -0.1175637,
      "lon": 34.6453401
    },
    {
      "type": "node",
      "id": 10946848697,
      "lat": -0.1167775,
      "lon": 34.6460783
    },
    {
      "type": "node",
      "id": 10946848698,
      "lat": -0.1161312,
      "lon": 34.6466529
    },
    {
      "type": "node",
      "id": 10946848699,
      "lat": -0.1155749,
      "lon": 34.6474435
    },
    {
      "type": "node",
      "id": 10946848700,
      "lat": -0.1148677,
      "lon": 34.6477396
    },
    {
      "type": "node",
      "id": 10951564121,
      "lat": -0.1086617,
      "lon": 34.603779
    },
    {
      "type": "node",
      "id": 10951564122,
      "lat": -0.1092674,
      "lon": 34.6036017
    },
    {
      "type": "node",
      "id": 10951564123,
      "lat": -0.1092912,
      "lon": 34.603599
    },
    {
      "type": "node",
      "id": 10951564124,
      "lat": -0.1097845,
      "lon": 34.6035426
    },
    {
      "type": "node",
      "id": 10951564125,
      "lat": -0.1101538,
      "lon": 34.6034835
    },
    {
      "type": "node",
      "id": 10951564126,
      "lat": -0.1113504,
      "lon": 34.603188
    },
    {
      "type": "node",
      "id": 10951564127,
      "lat": -0.1121629,
      "lon": 34.603055
    },
    {
      "type": "node",
      "id": 10951564109,
      "lat": -0.1033458,
      "lon": 34.6087698
    },
    {
      "type": "node",
      "id": 10951564110,
      "lat": -0.1034638,
      "lon": 34.6086571
    },
    {
      "type": "node",
      "id": 10951564111,
      "lat": -0.1038249,
      "lon": 34.6084349
    },
    {
      "type": "node",
      "id": 10951564112,
      "lat": -0.103928,
      "lon": 34.6082141
    },
    {
      "type": "node",
      "id": 10951564113,
      "lat": -0.10407,
      "lon": 34.6079096
    },
    {
      "type": "node",
      "id": 10951564114,
      "lat": -0.1045253,
      "lon": 34.6073142
    },
    {
      "type": "node",
      "id": 10951564115,
      "lat": -0.1049455,
      "lon": 34.606894
    },
    {
      "type": "node",
      "id": 10951564116,
      "lat": -0.1053307,
      "lon": 34.6065087
    },
    {
      "type": "node",
      "id": 10951564117,
      "lat": -0.10535,
      "lon": 34.6064853
    },
    {
      "type": "node",
      "id": 10951564118,
      "lat": -0.1058209,
      "lon": 34.6059134
    },
    {
      "type": "node",
      "id": 10951564119,
      "lat": -0.1066964,
      "lon": 34.605318
    },
    {
      "type": "node",
      "id": 10951564120,
      "lat": -0.1072731,
      "lon": 34.6047541
    },
    {
      "type": "node",
      "id": 10951564108,
      "lat": -0.102433,
      "lon": 34.6097119
    },
    {
      "type": "node",
      "id": 10951564093,
      "lat": -0.0982578,
      "lon": 34.6158793
    },
    {
      "type": "node",
      "id": 10951564094,
      "lat": -0.0983254,
      "lon": 34.6157906
    },
    {
      "type": "node",
      "id": 10951564095,
      "lat": -0.0983272,
      "lon": 34.6157894
    },
    {
      "type": "node",
      "id": 10951564096,
      "lat": -0.0983326,
      "lon": 34.6157812
    },
    {
      "type": "node",
      "id": 10951564097,
      "lat": -0.0987677,
      "lon": 34.6152104
    },
    {
      "type": "node",
      "id": 10951564098,
      "lat": -0.0993653,
      "lon": 34.6144135
    },
    {
      "type": "node",
      "id": 10951564099,
      "lat": -0.0996292,
      "lon": 34.6139296
    },
    {
      "type": "node",
      "id": 10951564100,
      "lat": -0.0998434,
      "lon": 34.613537
    },
    {
      "type": "node",
      "id": 10951564101,
      "lat": -0.1000898,
      "lon": 34.6128329
    },
    {
      "type": "node",
      "id": 10951564102,
      "lat": -0.1002531,
      "lon": 34.6125674
    },
    {
      "type": "node",
      "id": 10951564103,
      "lat": -0.1005683,
      "lon": 34.611902
    },
    {
      "type": "node",
      "id": 10951564104,
      "lat": -0.1006285,
      "lon": 34.6116009
    },
    {
      "type": "node",
      "id": 10951564105,
      "lat": -0.1007597,
      "lon": 34.6113057
    },
    {
      "type": "node",
      "id": 10951564106,
      "lat": -0.1011979,
      "lon": 34.610708
    },
    {
      "type": "node",
      "id": 10951564107,
      "lat": -0.1013165,
      "lon": 34.6106124
    },
    {
      "type": "node",
      "id": 10951564080,
      "lat": -0.0986083,
      "lon": 34.6216652
    },
    {
      "type": "node",
      "id": 10951564081,
      "lat": -0.0985685,
      "lon": 34.6208285
    },
    {
      "type": "node",
      "id": 10951564082,
      "lat": -0.098683,
      "lon": 34.6203703
    },
    {
      "type": "node",
      "id": 10951564083,
      "lat": -0.0986874,
      "lon": 34.6203621
    },
    {
      "type": "node",
      "id": 10951564084,
      "lat": -0.0988249,
      "lon": 34.62007
    },
    {
      "type": "node",
      "id": 10951564085,
      "lat": -0.0989108,
      "lon": 34.6197607
    },
    {
      "type": "node",
      "id": 10951564086,
      "lat": -0.0988764,
      "lon": 34.6192624
    },
    {
      "type": "node",
      "id": 10951564087,
      "lat": -0.0988474,
      "lon": 34.6191171
    },
    {
      "type": "node",
      "id": 10951564088,
      "lat": -0.0988474,
      "lon": 34.6189558
    },
    {
      "type": "node",
      "id": 10951564089,
      "lat": -0.0986083,
      "lon": 34.6178402
    },
    {
      "type": "node",
      "id": 10951564090,
      "lat": -0.0982498,
      "lon": 34.6170831
    },
    {
      "type": "node",
      "id": 10951564091,
      "lat": -0.0982256,
      "lon": 34.6169624
    },
    {
      "type": "node",
      "id": 10951564092,
      "lat": -0.0981303,
      "lon": 34.6164854
    },
    {
      "type": "node",
      "id": 10951564068,
      "lat": -0.0960461,
      "lon": 34.629207
    },
    {
      "type": "node",
      "id": 10951564069,
      "lat": -0.0963375,
      "lon": 34.6273231
    },
    {
      "type": "node",
      "id": 10951564070,
      "lat": -0.0968446,
      "lon": 34.6260721
    },
    {
      "type": "node",
      "id": 10951564071,
      "lat": -0.0969005,
      "lon": 34.6259812
    },
    {
      "type": "node",
      "id": 10951564072,
      "lat": -0.097115,
      "lon": 34.6255265
    },
    {
      "type": "node",
      "id": 10951564073,
      "lat": -0.0975361,
      "lon": 34.6247719
    },
    {
      "type": "node",
      "id": 10951564074,
      "lat": -0.0976797,
      "lon": 34.6245146
    },
    {
      "type": "node",
      "id": 10951564075,
      "lat": -0.0977252,
      "lon": 34.624469
    },
    {
      "type": "node",
      "id": 10951564076,
      "lat": -0.0977834,
      "lon": 34.6243288
    },
    {
      "type": "node",
      "id": 10951564077,
      "lat": -0.0978912,
      "lon": 34.6241356
    },
    {
      "type": "node",
      "id": 10951564078,
      "lat": -0.0983295,
      "lon": 34.6232192
    },
    {
      "type": "node",
      "id": 10951564079,
      "lat": -0.0984229,
      "lon": 34.6226984
    },
    {
      "type": "node",
      "id": 10946848701,
      "lat": -0.1145806,
      "lon": 34.6484471
    },
    {
      "type": "node",
      "id": 10946848702,
      "lat": -0.1139627,
      "lon": 34.6491873
    },
    {
      "type": "node",
      "id": 10946848703,
      "lat": -0.1136946,
      "lon": 34.6496275
    },
    {
      "type": "node",
      "id": 10946848704,
      "lat": -0.1131348,
      "lon": 34.6519759
    },
    {
      "type": "node",
      "id": 10946848705,
      "lat": -0.1138352,
      "lon": 34.654082
    },
    {
      "type": "node",
      "id": 11303130419,
      "lat": -0.1143178,
      "lon": 34.6548317
    },
    {
      "type": "node",
      "id": 10951564062,
      "lat": -0.0964558,
      "lon": 34.6354583
    },
    {
      "type": "node",
      "id": 10951564063,
      "lat": -0.0964171,
      "lon": 34.635292
    },
    {
      "type": "node",
      "id": 10951564064,
      "lat": -0.0962225,
      "lon": 34.6336796
    },
    {
      "type": "node",
      "id": 10951564065,
      "lat": -0.0961383,
      "lon": 34.632981
    },
    {
      "type": "node",
      "id": 10951564066,
      "lat": -0.0960586,
      "lon": 34.6309888
    },
    {
      "type": "node",
      "id": 10951564067,
      "lat": -0.0960586,
      "lon": 34.6300326
    },
    {
      "type": "node",
      "id": 10951564050,
      "lat": -0.0984719,
      "lon": 34.6420776
    },
    {
      "type": "node",
      "id": 10951564051,
      "lat": -0.098449,
      "lon": 34.6419859
    },
    {
      "type": "node",
      "id": 10951564052,
      "lat": -0.0981921,
      "lon": 34.6413437
    },
    {
      "type": "node",
      "id": 10951564053,
      "lat": -0.0980361,
      "lon": 34.6408595
    },
    {
      "type": "node",
      "id": 10951564054,
      "lat": -0.0978912,
      "lon": 34.6403523
    },
    {
      "type": "node",
      "id": 10951564055,
      "lat": -0.0976522,
      "lon": 34.6394358
    },
    {
      "type": "node",
      "id": 10951564056,
      "lat": -0.0974761,
      "lon": 34.6389015
    },
    {
      "type": "node",
      "id": 10951564057,
      "lat": -0.0971401,
      "lon": 34.6378817
    },
    {
      "type": "node",
      "id": 10951564058,
      "lat": -0.096874,
      "lon": 34.6371631
    },
    {
      "type": "node",
      "id": 10951564059,
      "lat": -0.096849,
      "lon": 34.6370819
    },
    {
      "type": "node",
      "id": 10951564060,
      "lat": -0.0967974,
      "lon": 34.6368241
    },
    {
      "type": "node",
      "id": 10951564061,
      "lat": -0.0966682,
      "lon": 34.6363719
    },
    {
      "type": "node",
      "id": 10951563954,
      "lat": -0.0885263,
      "lon": 34.6371311
    },
    {
      "type": "node",
      "id": 10951563955,
      "lat": -0.0885341,
      "lon": 34.6371389
    },
    {
      "type": "node",
      "id": 10951563956,
      "lat": -0.0886259,
      "lon": 34.6372308
    },
    {
      "type": "node",
      "id": 10951563957,
      "lat": -0.0886585,
      "lon": 34.6372633
    },
    {
      "type": "node",
      "id": 10951563958,
      "lat": -0.0886655,
      "lon": 34.6373169
    },
    {
      "type": "node",
      "id": 10951563959,
      "lat": -0.0886938,
      "lon": 34.637531
    },
    {
      "type": "node",
      "id": 10951563960,
      "lat": -0.0887048,
      "lon": 34.6376145
    },
    {
      "type": "node",
      "id": 10951563961,
      "lat": -0.0887111,
      "lon": 34.6376077
    },
    {
      "type": "node",
      "id": 10951563962,
      "lat": -0.0887686,
      "lon": 34.637862
    },
    {
      "type": "node",
      "id": 10951563963,
      "lat": -0.088871,
      "lon": 34.6381921
    },
    {
      "type": "node",
      "id": 10951563964,
      "lat": -0.0893394,
      "lon": 34.6384527
    },
    {
      "type": "node",
      "id": 10951563965,
      "lat": -0.089478,
      "lon": 34.6385081
    },
    {
      "type": "node",
      "id": 10951563966,
      "lat": -0.0897013,
      "lon": 34.6386799
    },
    {
      "type": "node",
      "id": 10951563967,
      "lat": -0.0897701,
      "lon": 34.6387315
    },
    {
      "type": "node",
      "id": 10951563968,
      "lat": -0.0899075,
      "lon": 34.6388002
    },
    {
      "type": "node",
      "id": 10951563969,
      "lat": -0.0899416,
      "lon": 34.6388816
    },
    {
      "type": "node",
      "id": 10951563970,
      "lat": -0.0900314,
      "lon": 34.639096
    },
    {
      "type": "node",
      "id": 10951563971,
      "lat": -0.0901887,
      "lon": 34.639268
    },
    {
      "type": "node",
      "id": 10951563972,
      "lat": -0.0903412,
      "lon": 34.6394869
    },
    {
      "type": "node",
      "id": 10951563973,
      "lat": -0.0906343,
      "lon": 34.6398063
    },
    {
      "type": "node",
      "id": 10951563974,
      "lat": -0.0909449,
      "lon": 34.6400039
    },
    {
      "type": "node",
      "id": 10951563975,
      "lat": -0.0910441,
      "lon": 34.640067
    },
    {
      "type": "node",
      "id": 10951563976,
      "lat": -0.0911187,
      "lon": 34.6401251
    },
    {
      "type": "node",
      "id": 10951563977,
      "lat": -0.0911528,
      "lon": 34.6401475
    },
    {
      "type": "node",
      "id": 10951563978,
      "lat": -0.0917032,
      "lon": 34.640511
    },
    {
      "type": "node",
      "id": 10951563979,
      "lat": -0.0921481,
      "lon": 34.6410585
    },
    {
      "type": "node",
      "id": 10951563980,
      "lat": -0.0922793,
      "lon": 34.6416691
    },
    {
      "type": "node",
      "id": 10951563981,
      "lat": -0.0923294,
      "lon": 34.6420121
    },
    {
      "type": "node",
      "id": 10951563982,
      "lat": -0.0924348,
      "lon": 34.6422717
    },
    {
      "type": "node",
      "id": 10951563999,
      "lat": -0.0950885,
      "lon": 34.6459917
    },
    {
      "type": "node",
      "id": 10951564000,
      "lat": -0.0952264,
      "lon": 34.646354
    },
    {
      "type": "node",
      "id": 10951564001,
      "lat": -0.0951626,
      "lon": 34.6464023
    },
    {
      "type": "node",
      "id": 10951564002,
      "lat": -0.0952797,
      "lon": 34.6465026
    },
    {
      "type": "node",
      "id": 10951564003,
      "lat": -0.0954833,
      "lon": 34.6467063
    },
    {
      "type": "node",
      "id": 10951564004,
      "lat": -0.095687,
      "lon": 34.64691
    },
    {
      "type": "node",
      "id": 10951564005,
      "lat": -0.0958499,
      "lon": 34.6471136
    },
    {
      "type": "node",
      "id": 10951564006,
      "lat": -0.0959313,
      "lon": 34.6473987
    },
    {
      "type": "node",
      "id": 10951564007,
      "lat": -0.0959575,
      "lon": 34.6473966
    },
    {
      "type": "node",
      "id": 10951564008,
      "lat": -0.0960819,
      "lon": 34.6473862
    },
    {
      "type": "node",
      "id": 10951564009,
      "lat": -0.096135,
      "lon": 34.6480943
    },
    {
      "type": "node",
      "id": 10951564010,
      "lat": -0.0961357,
      "lon": 34.6480986
    },
    {
      "type": "node",
      "id": 10951564034,
      "lat": -0.0991236,
      "lon": 34.6482651
    },
    {
      "type": "node",
      "id": 10951564035,
      "lat": -0.0992944,
      "lon": 34.6464717
    },
    {
      "type": "node",
      "id": 10951564036,
      "lat": -0.0993162,
      "lon": 34.6460568
    },
    {
      "type": "node",
      "id": 10951564037,
      "lat": -0.099394,
      "lon": 34.6459164
    },
    {
      "type": "node",
      "id": 10951564038,
      "lat": -0.099389,
      "lon": 34.6457871
    },
    {
      "type": "node",
      "id": 10951564039,
      "lat": -0.0993653,
      "lon": 34.6451734
    },
    {
      "type": "node",
      "id": 10951564040,
      "lat": -0.099363,
      "lon": 34.6451669
    },
    {
      "type": "node",
      "id": 10951564041,
      "lat": -0.0993797,
      "lon": 34.6448492
    },
    {
      "type": "node",
      "id": 10951564042,
      "lat": -0.0990546,
      "lon": 34.6442802
    },
    {
      "type": "node",
      "id": 10951564043,
      "lat": -0.0990466,
      "lon": 34.644257
    },
    {
      "type": "node",
      "id": 10951564044,
      "lat": -0.0989104,
      "lon": 34.6437803
    },
    {
      "type": "node",
      "id": 10951564045,
      "lat": -0.0988872,
      "lon": 34.6436992
    },
    {
      "type": "node",
      "id": 10951564046,
      "lat": -0.0987279,
      "lon": 34.6431015
    },
    {
      "type": "node",
      "id": 10951564047,
      "lat": -0.0987149,
      "lon": 34.6430495
    },
    {
      "type": "node",
      "id": 10951564048,
      "lat": -0.0986601,
      "lon": 34.6427961
    },
    {
      "type": "node",
      "id": 10951564049,
      "lat": -0.0986219,
      "lon": 34.6426775
    },
    {
      "type": "node",
      "id": 10951564011,
      "lat": -0.0963058,
      "lon": 34.6492471
    },
    {
      "type": "node",
      "id": 10951564012,
      "lat": -0.0965491,
      "lon": 34.6507476
    },
    {
      "type": "node",
      "id": 10951564013,
      "lat": -0.096562,
      "lon": 34.650827
    },
    {
      "type": "node",
      "id": 10951564014,
      "lat": -0.096567,
      "lon": 34.6508444
    },
    {
      "type": "node",
      "id": 10951564015,
      "lat": -0.0965813,
      "lon": 34.6508945
    },